%time,field.header.seq,field.header.stamp,field.header.frame_id,field.pose.position.x,field.pose.position.y,field.pose.position.z,field.pose.orientation.x,field.pose.orientation.y,field.pose.orientation.z,field.pose.orientation.w
1455190234785702087,771513,1455190234785702087,world,0.058200892061,1.16314649582,1.0174331665,-0.0241065770388,-0.000935445539653,-8.30183198559e-05,0.999709010124
1455190234794090545,771514,1455190234794090545,world,0.0582231543958,1.16319262981,1.01742136478,-0.0241545215249,-0.000954678631388,9.21348982956e-05,0.999707877636
1455190234802527916,771515,1455190234802527916,world,0.0582261271775,1.16318821907,1.01738536358,-0.0243352949619,-0.00103269063402,-0.000229509809287,0.999703407288
1455190234810525354,771516,1455190234810525354,world,0.058243278414,1.16320610046,1.01738607883,-0.0236757453531,-0.00116895302199,-0.000405517348554,0.999719023705
1455190234818991464,771517,1455190234818991464,world,0.058212839067,1.1631911993,1.01738500595,-0.0236385092139,-0.00119935430121,9.05678825802e-06,0.99971985817
1455190234827273076,771518,1455190234827273076,world,0.0582222007215,1.1632168293,1.01741564274,-0.0238712932914,-0.00139348383527,-0.000211448757909,0.999714076519
1455190234835318031,771519,1455190234835318031,world,0.058181874454,1.16322290897,1.01743245125,-0.0240936540067,-0.0014974437654,-1.17202935144e-05,0.999708652496
1455190234843932189,771520,1455190234843932189,world,0.0582131631672,1.16316080093,1.01743662357,-0.0240616612136,-0.00127460982185,-0.000351177412085,0.999709606171
1455190234852341447,771521,1455190234852341447,world,0.0581744201481,1.16314530373,1.0174677372,-0.0241031143814,-0.00132793560624,2.29070446949e-05,0.999708652496
1455190234860740913,771522,1455190234860740913,world,0.058203946799,1.16318106651,1.0174601078,-0.0242927614599,-0.00130877189804,-0.000198639027076,0.999704122543
1455190234868927638,771523,1455190234868927638,world,0.0581565648317,1.16320693493,1.01747381687,-0.0238913930953,-0.00153948541265,3.56169766746e-05,0.999713480473
1455190234877173755,771524,1455190234877173755,world,0.0581787228584,1.16317498684,1.01742982864,-0.0242615435272,-0.0010883519426,-0.000192907129531,0.999705076218
1455190234885725653,771525,1455190234885725653,world,0.0582345165312,1.16320073605,1.01739501953,-0.0241646748036,-0.00115078303497,-0.000206468073884,0.999707341194
1455190234893788820,771526,1455190234893788820,world,0.0581908971071,1.16318678856,1.01738882065,-0.0236052367836,-0.00128207996022,-4.51506957688e-06,0.999720573425
1455190234902291689,771527,1455190234902291689,world,0.0582084581256,1.1631872654,1.01739907265,-0.0238152854145,-0.00116726499982,-0.000247316173045,0.999715745449
1455190234910511180,771528,1455190234910511180,world,0.0582427978516,1.16321218014,1.01736402512,-0.0241122469306,-0.00110765802674,-0.000247862597462,0.999708712101
1455190234919044552,771529,1455190234919044552,world,0.0582541115582,1.16321206093,1.0174036026,-0.0242831017822,-0.00132813642267,-0.000345609674696,0.999704241753
1455190234927300109,771530,1455190234927300109,world,0.0582172051072,1.16315829754,1.01744520664,-0.0240431446582,-0.00121196219698,-0.000126338738482,0.999710202217
1455190234935645991,771531,1455190234935645991,world,0.058202445507,1.16317629814,1.01743781567,-0.0244035385549,-0.00122329569422,-0.00016297827824,0.999701440334
1455190234943675343,771532,1455190234943675343,world,0.0582062117755,1.16314840317,1.01742696762,-0.024395160377,-0.00130434846506,-0.000275156693533,0.999701559544
1455190234952320244,771533,1455190234952320244,world,0.0582127422094,1.16319644451,1.01742196083,-0.0244453940541,-0.00103941524867,-0.000216977365199,0.999700665474
1455190234960633942,771534,1455190234960633942,world,0.0581969246268,1.1632090807,1.01743090153,-0.0239111278206,-0.00143892783672,-0.000314857024932,0.999713003635
1455190234968989938,771535,1455190234968989938,world,0.0582108944654,1.16325759888,1.01742494106,-0.0241960454732,-0.00095268531004,-0.000481235649204,0.999706745148
1455190234977267244,771536,1455190234977267244,world,0.0581955686212,1.16315031052,1.01743710041,-0.0240922383964,-0.00160325667821,-0.000242149966653,0.999708533287
1455190234985573107,771537,1455190234985573107,world,0.0581938102841,1.163215518,1.01741564274,-0.0240324307233,-0.00149391847663,-0.000218606684939,0.999710142612
1455190234994023777,771538,1455190234994023777,world,0.0582189112902,1.16317617893,1.0174292326,-0.0241684950888,-0.00140288623516,-0.000148658058606,0.999706983566
1455190235002331373,771539,1455190235002331373,world,0.0582277625799,1.16315090656,1.01745700836,-0.0242466274649,-0.00108119728975,-8.42701410875e-05,0.999705433846
1455190235010542304,771540,1455190235010542304,world,0.0582283511758,1.16319394112,1.01741290092,-0.0241218227893,-0.0016434394056,-0.000154187597218,0.999707698822
1455190235019275300,771541,1455190235019275300,world,0.0582255572081,1.16313683987,1.01739954948,-0.0245077721775,-0.000936711381655,-0.000264819362201,0.999699175358
1455190235027320200,771542,1455190235027320200,world,0.0582232698798,1.16318714619,1.01739394665,-0.0242764651775,-0.0012246533297,-0.000258456071606,0.999704539776
1455190235035477616,771543,1455190235035477616,world,0.0582089275122,1.1632322073,1.01741671562,-0.0239196717739,-0.00140620674938,-0.000193855768885,0.999712944031
1455190235043813883,771544,1455190235043813883,world,0.058192923665,1.16321587563,1.0174113512,-0.0241244193166,-0.00152610940859,-0.000156741283718,0.999707877636
1455190235052407329,771545,1455190235052407329,world,0.0582094304264,1.16321361065,1.01740992069,-0.0239748768508,-0.00129323068541,-0.0003432702797,0.999711692333
1455190235060697696,771546,1455190235060697696,world,0.0581594407558,1.16315889359,1.01742839813,-0.024149985984,-0.0014604118187,-0.000481283350382,0.99970716238
1455190235068838867,771547,1455190235068838867,world,0.058186724782,1.16318714619,1.01748728752,-0.0243651475757,-0.00117926311214,-0.00023556141241,0.999702513218
1455190235077356340,771548,1455190235077356340,world,0.0581796690822,1.16316640377,1.01748859882,-0.023769704625,-0.0012703591492,0.000106627419882,0.999716699123
1455190235085837394,771549,1455190235085837394,world,0.0581790246069,1.16312670708,1.01744031906,-0.0239966195077,-0.00142965477426,-5.56745799258e-05,0.999711036682
1455190235093984717,771550,1455190235093984717,world,0.0582419373095,1.16319608688,1.01742315292,-0.0244594980031,-0.00120810524095,-0.000234406252275,0.999700129032
1455190235102341737,771551,1455190235102341737,world,0.0582138076425,1.16318106651,1.01739966869,-0.0242111776024,-0.00156172050629,-0.000168291953742,0.999705672264
1455190235110598163,771552,1455190235110598163,world,0.0582280382514,1.1632515192,1.01739394665,-0.0236856564879,-0.00128273444716,-0.000222615562961,0.999718606472
1455190235119210206,771553,1455190235119210206,world,0.0582221820951,1.16318333149,1.0173573494,-0.0240697562695,-0.00131863052957,-0.000182694377145,0.999709486961
1455190235127407171,771554,1455190235127407171,world,0.0582326874137,1.16322588921,1.01739227772,-0.0237847100943,-0.00121496582869,-0.000185673387023,0.999716460705
1455190235135469107,771555,1455190235135469107,world,0.0581951141357,1.16317796707,1.01740598679,-0.0242367498577,-0.00131157168653,-0.000223738330533,0.999705433846
1455190235143804836,771556,1455190235143804836,world,0.058206088841,1.16313445568,1.01743781567,-0.0240470264107,-0.00131143885665,-0.000199816131499,0.999710023403
1455190235152451859,771557,1455190235152451859,world,0.0581959299743,1.16317081451,1.01744747162,-0.0242575462908,-0.00127565138973,-0.000275371683529,0.999704957008
1455190235160699046,771558,1455190235160699046,world,0.0582147091627,1.16315889359,1.01745951176,-0.0242268182337,-0.0013921125792,-0.000248937314609,0.999705553055
1455190235168828660,771559,1455190235168828660,world,0.0581738427281,1.16322922707,1.01746356487,-0.0237109195441,-0.00172968290281,8.87428177521e-05,0.999717414379
1455190235176994666,771560,1455190235176994666,world,0.0581517927349,1.16314542294,1.01747059822,-0.0235626306385,-0.00129000691231,-0.000220931469812,0.999721586704
1455190235185637660,771561,1455190235185637660,world,0.0582048371434,1.16318702698,1.01742088795,-0.0236024074256,-0.00106088723987,-9.98788382276e-05,0.999720931053
1455190235193848053,771562,1455190235193848053,world,0.0582249723375,1.16325283051,1.01740098,-0.0239588599652,-0.00143477751408,-0.00027411559131,0.999711930752
1455190235202228889,771563,1455190235202228889,world,0.0582011155784,1.16317975521,1.01737058163,-0.0238291509449,-0.00129830185324,-3.63077924703e-05,0.999715268612
1455190235210454683,771564,1455190235210454683,world,0.0582358203828,1.16321313381,1.017390728,-0.0238799694926,-0.0014022924006,-0.000330226583173,0.9997138381
1455190235219000455,771565,1455190235219000455,world,0.0582158863544,1.16323578358,1.0174062252,-0.0238963570446,-0.00149081961717,-0.000162246185937,0.999713420868
1455190235227278953,771566,1455190235227278953,world,0.0582087114453,1.16317808628,1.01741802692,-0.0243179667741,-0.00138615409378,-0.000160778072313,0.999703347683
1455190235235717445,771567,1455190235235717445,world,0.0582052506506,1.16315364838,1.01745426655,-0.0242223460227,-0.00126651767641,-0.000320471997838,0.999705851078
1455190235243710252,771568,1455190235243710252,world,0.0581874363124,1.16319966316,1.01745307446,-0.023567084223,-0.00176724803168,-3.2248430216e-05,0.999720692635
1455190235252382401,771569,1455190235252382401,world,0.058214571327,1.16319894791,1.01744711399,-0.0246151164174,-0.00108193524648,-0.000201772505534,0.99969637394
1455190235260727427,771570,1455190235260727427,world,0.0581920966506,1.16320061684,1.01743686199,-0.0239942315966,-0.00149164127652,-0.00017362026847,0.999710977077
1455190235268924549,771571,1455190235268924549,world,0.0581648163497,1.16315114498,1.01740276814,-0.0239262375981,-0.00174378487282,-0.000531119294465,0.99971216917
1455190235276989007,771572,1455190235276989007,world,0.0581637024879,1.16328597069,1.01746547222,-0.0237874314189,-0.00151632912457,-0.00019725850143,0.999715983868
1455190235285672521,771573,1455190235285672521,world,0.0582059957087,1.16320550442,1.017406106,-0.0240926947445,-0.00127284892369,-0.000253016507486,0.999708890915
1455190235293906552,771574,1455190235293906552,world,0.0582016445696,1.16319012642,1.01740479469,-0.0241356212646,-0.00137077691033,-0.000192227045773,0.999707758427
1455190235302165009,771575,1455190235302165009,world,0.0582196116447,1.16317141056,1.01743113995,-0.0241415835917,-0.00125417835079,-0.000290529511403,0.999707758427
1455190235310454519,771576,1455190235310454519,world,0.0582501664758,1.16318643093,1.01743710041,-0.024314051494,-0.000955509953201,-0.000130519765662,0.999703943729
1455190235318967485,771577,1455190235318967485,world,0.0582369156182,1.16321659088,1.01744389534,-0.0245062038302,-0.00122752191965,-0.000149653234985,0.999698936939
1455190235327239186,771578,1455190235327239186,world,0.0582196041942,1.16312611103,1.01742339134,-0.0240236520767,-0.00145855476148,-0.000325528846588,0.999710381031
1455190235335685398,771579,1455190235335685398,world,0.0582278892398,1.16316914558,1.01740980148,-0.023975558579,-0.00131067377515,-0.000205842778087,0.999711751938
1455190235343792549,771580,1455190235343792549,world,0.0582062229514,1.16322040558,1.01743233204,-0.0236940942705,-0.00139154726639,-0.000351596769178,0.999718308449
1455190235352301937,771581,1455190235352301937,world,0.0582159273326,1.16321909428,1.01740133762,-0.0241978764534,-0.00128450535703,-0.000301331689116,0.999706327915
1455190235360645917,771582,1455190235360645917,world,0.0581961683929,1.16318249702,1.01739120483,-0.0245954804122,-0.0015211639693,-0.000430112238973,0.99969625473
1455190235368890104,771583,1455190235368890104,world,0.0581761598587,1.16319179535,1.01745665073,-0.0239254329354,-0.00104490842205,-0.000286900787614,0.999713242054
1455190235377141923,771584,1455190235377141923,world,0.0581874847412,1.16314089298,1.01745390892,-0.0241965055466,-0.00142529211007,-0.000158581169671,0.999706208706
1455190235385650845,771585,1455190235385650845,world,0.0581949837506,1.16313791275,1.01743984222,-0.0246191099286,-0.00113324739505,-4.15910562879e-06,0.99969625473
1455190235393931093,771586,1455190235393931093,world,0.0582113973796,1.16317999363,1.01746320724,-0.0241812970489,-0.00125983508769,-0.000206240802072,0.999706804752
1455190235402245687,771587,1455190235402245687,world,0.058219846338,1.1631770134,1.01743447781,-0.0238254163414,-0.00131401675753,-5.38272506674e-05,0.999715268612
1455190235410544079,771588,1455190235410544079,world,0.0582261532545,1.16315150261,1.01741278172,-0.0244815703481,-0.00130335160065,-0.000292452255962,0.999699354172
1455190235419097374,771589,1455190235419097374,world,0.0582386292517,1.1632142067,1.01739525795,-0.023901514709,-0.00153848994523,-0.000285811489448,0.999713182449
1455190235427397845,771590,1455190235427397845,world,0.0582693181932,1.16319715977,1.01738512516,-0.024033434689,-0.00113943405449,-0.000276697886875,0.999710559845
1455190235435679192,771591,1455190235435679192,world,0.0582158304751,1.16315424442,1.01737618446,-0.0238282941282,-0.00142771645915,-0.000187195211765,0.999715030193
1455190235443874467,771592,1455190235443874467,world,0.0582525543869,1.16321361065,1.01736176014,-0.0243071168661,-0.00151610479224,-0.000346983986674,0.999703407288
1455190235452278486,771593,1455190235452278486,world,0.0581912770867,1.16313123703,1.01744425297,-0.0244913287461,-0.00144344277214,-0.000302609667415,0.999698936939
1455190235460544369,771594,1455190235460544369,world,0.0581593103707,1.16317999363,1.01746177673,-0.0241561811417,-0.0015147725353,-4.43013559561e-05,0.999707102776
1455190235468937129,771595,1455190235468937129,world,0.0582001656294,1.16318500042,1.01744949818,-0.0242920350283,-0.00112662708852,-0.000180394039489,0.999704360962
1455190235477185092,771596,1455190235477185092,world,0.0581971146166,1.16316831112,1.01744437218,-0.0244838148355,-0.00126242288388,-0.000266627408564,0.999699473381
1455190235485690048,771597,1455190235485690048,world,0.0581933706999,1.16319167614,1.01740932465,-0.0242858622223,-0.00127963640261,-0.000148756764247,0.999704301357
1455190235494017845,771598,1455190235494017845,world,0.0582050122321,1.16328191757,1.01741945744,-0.0239044744521,-0.00135285034776,-0.00013040372869,0.999713420868
1455190235502210978,771599,1455190235502210978,world,0.0581987611949,1.16321659088,1.01740419865,-0.0236585941166,-0.00135147001129,-0.000281225133222,0.999719202518
1455190235510519283,771600,1455190235510519283,world,0.0582395456731,1.16320014,1.01738512516,-0.0240901429206,-0.00122321303934,-0.000202897426789,0.999709129333
1455190235519001990,771601,1455190235519001990,world,0.0582068823278,1.16322052479,1.01740312576,-0.0245699007064,-0.00157089182176,-0.000494255276863,0.999696731567
1455190235527165249,771602,1455190235527165249,world,0.0582290180027,1.16318678856,1.01741123199,-0.0242242924869,-0.00119064527098,-0.000142147866427,0.999705851078
1455190235535622029,771603,1455190235535622029,world,0.0582146942616,1.16314065456,1.01741838455,-0.0239228829741,-0.00118278886657,-1.33948678922e-05,0.999713182449
1455190235543657421,771604,1455190235543657421,world,0.0582557544112,1.16319286823,1.01740539074,-0.0245672762394,-0.00103311450221,-0.000271836674074,0.999697625637
1455190235552306476,771605,1455190235552306476,world,0.058183517307,1.1632014513,1.01743996143,-0.0242345891893,-0.00130128057208,7.35487483325e-05,0.99970549345
1455190235560636961,771606,1455190235560636961,world,0.0582113936543,1.16314828396,1.01741123199,-0.024049134925,-0.00120071391575,-0.000224131668801,0.999710142612
1455190235568738606,771607,1455190235568738606,world,0.0581802912056,1.16318416595,1.01744365692,-0.0235949512571,-0.00136571272742,-0.000271428172709,0.999720692635
1455190235577083918,771608,1455190235577083918,world,0.0581789985299,1.16317903996,1.01742529869,-0.0242057945579,-0.00164484907873,-0.000277545186691,0.999705672264
1455190235585629604,771609,1455190235585629604,world,0.0581774227321,1.16315507889,1.01742315292,-0.0239043142647,-0.00159725022968,-0.00030043971492,0.999712944031
1455190235593770510,771610,1455190235593770510,world,0.0582049749792,1.16320216656,1.01743578911,-0.0240419041365,-0.0013938160846,-0.000287256261799,0.999709963799
1455190235602237143,771611,1455190235602237143,world,0.0581958331168,1.16317892075,1.01743996143,-0.0240236651152,-0.00125419092365,-5.87162503507e-05,0.99971061945
1455190235610561104,771612,1455190235610561104,world,0.0582257062197,1.16318237782,1.017390728,-0.0248518083245,-0.0012916054111,-0.000182238902198,0.99969035387
1455190235618931709,771613,1455190235618931709,world,0.0582429468632,1.16319215298,1.01738464832,-0.0241527687758,-0.00154418719467,-0.000171278647031,0.999707102776
1455190235627342935,771614,1455190235627342935,world,0.0582044795156,1.16320228577,1.01740407944,-0.0241470262408,-0.00124136148952,3.57931967301e-05,0.999707758427
1455190235635496449,771615,1455190235635496449,world,0.0582220479846,1.16317451,1.01743245125,-0.0237872097641,-0.00152220961172,-0.000205002274015,0.999715864658
1455190235643890404,771616,1455190235643890404,world,0.058206949383,1.16325724125,1.01746058464,-0.0238114800304,-0.00145630410407,-0.00012111079559,0.99971550703
1455190235652172428,771617,1455190235652172428,world,0.0581966601312,1.16320300102,1.01744008064,-0.0234804414213,-0.00162141618785,-0.000414327514591,0.999722898006
1455190235660659342,771618,1455190235660659342,world,0.0581784211099,1.16325724125,1.01743328571,-0.0237104129046,-0.00135343684815,-0.000237303625909,0.999717950821
1455190235669012307,771619,1455190235669012307,world,0.0582027547061,1.16319167614,1.01747989655,-0.0237422585487,-0.000998468021862,9.69621760305e-06,0.999717712402
1455190235677116270,771620,1455190235677116270,world,0.0582074187696,1.16319441795,1.0174292326,-0.024155035615,-0.00121534371283,3.22835585393e-05,0.999707579613
1455190235685677165,771621,1455190235685677165,world,0.0581855326891,1.16323018074,1.01745855808,-0.0237584728748,-0.00162389292382,-1.89659476746e-05,0.999716520309
1455190235693984773,771622,1455190235693984773,world,0.0582239329815,1.16318643093,1.01743292809,-0.0242767035961,-0.00121513055637,-0.00028859381564,0.99970459938
1455190235702299187,771623,1455190235702299187,world,0.0582195520401,1.16317129135,1.01742112637,-0.0243684891611,-0.00121198792476,-0.000240513356403,0.999702394009
1455190235710505259,771624,1455190235710505259,world,0.0582301020622,1.16319966316,1.01740980148,-0.0242362935096,-0.00119982555043,-0.000139400028274,0.999705553055
1455190235718964615,771625,1455190235718964615,world,0.0581913180649,1.16317510605,1.01741051674,-0.0237385891378,-0.0011661950266,-0.000200632523047,0.999717593193
1455190235727204259,771626,1455190235727204259,world,0.0581927597523,1.16319859028,1.01739823818,-0.0238351784647,-0.00134266586974,-0.000133157052915,0.999715089798
1455190235735747420,771627,1455190235735747420,world,0.0582341477275,1.16327226162,1.01736664772,-0.0240282043815,-0.00137697998434,-4.10525099142e-05,0.999710381031
1455190235743800407,771628,1455190235743800407,world,0.0582527965307,1.16318750381,1.01740705967,-0.0240536946803,-0.0015229259152,-0.000273712095805,0.999709486961
1455190235752216507,771629,1455190235752216507,world,0.0582310184836,1.16317093372,1.01743352413,-0.0239395070821,-0.000922405917663,-8.68395509315e-05,0.99971306324
1455190235760720617,771630,1455190235760720617,world,0.0582091398537,1.16320335865,1.01746916771,-0.0240930505097,-0.00115793454461,-0.000324213790009,0.999709010124
1455190235768837860,771631,1455190235768837860,world,0.0581668540835,1.16315829754,1.01751089096,-0.024196209386,-0.00104812579229,0.000135813694214,0.999706745148
1455190235777187910,771632,1455190235777187910,world,0.0581637993455,1.16315352917,1.01744759083,-0.0241436753422,-0.00147182587534,-0.000187607336557,0.999707460403
1455190235785753010,771633,1455190235785753010,world,0.058173481375,1.1631667614,1.01745009422,-0.0242643877864,-0.00114394549746,-0.000327045592712,0.999704957008
1455190235794040976,771634,1455190235794040976,world,0.0582017526031,1.16322827339,1.01740765572,-0.0243731532246,-0.00110398477409,-0.000115715309221,0.999702334404
1455190235802249258,771635,1455190235802249258,world,0.0581942014396,1.16320240498,1.01741683483,-0.0235797278583,-0.00133575696964,-4.83270778204e-05,0.999721169472
1455190235810536147,771636,1455190235810536147,world,0.0582751147449,1.16323149204,1.01736986637,-0.0241847708821,-0.00115753372665,-0.000298375409329,0.999706864357
1455190235818876060,771637,1455190235818876060,world,0.0582431964576,1.16316711903,1.01740300655,-0.0241821818054,-0.00121172936633,-0.000284553098027,0.999706864357
1455190235827068762,771638,1455190235827068762,world,0.058212403208,1.16316437721,1.01740503311,-0.0239948686212,-0.0015239053173,-0.000286709400825,0.999710917473
1455190235835550389,771639,1455190235835550389,world,0.0582232475281,1.16320669651,1.01743042469,-0.0247038751841,-0.00158668530639,-0.000417856877903,0.999693453312
1455190235843806131,771640,1455190235843806131,world,0.05817887187,1.16311848164,1.01744675636,-0.024194361642,-0.00147334474605,-9.83026548056e-05,0.999706208706
1455190235852203714,771641,1455190235852203714,world,0.0581992119551,1.16315841675,1.01748740673,-0.0244237799197,-0.00127633125521,-0.000335493619787,0.999700844288
1455190235860464997,771642,1455190235860464997,world,0.0582346320152,1.16317784786,1.01743233204,-0.0241809170693,-0.00127932918258,-0.000223856637604,0.999706804752
1455190235869005839,771643,1455190235869005839,world,0.0581733435392,1.16325008869,1.01745259762,-0.0242028310895,-0.00130859774072,-0.000100676799775,0.999706268311
1455190235877058455,771644,1455190235877058455,world,0.0581729710102,1.16323232651,1.01743578911,-0.0240611508489,-0.00122923485469,-0.000207994933589,0.999709784985
1455190235885647533,771645,1455190235885647533,world,0.0581695698202,1.16317510605,1.01737868786,-0.0240919962525,-0.0012523306068,-0.00041939431685,0.99970895052
1455190235894036645,771646,1455190235894036645,world,0.0582029819489,1.16315162182,1.01740884781,-0.0243425127119,-0.00139642029535,-0.000314567354508,0.999702751637
1455190235902413699,771647,1455190235902413699,world,0.0582368858159,1.1632142067,1.01742351055,-0.024153707549,-0.00129824969918,-0.00033052318031,0.999707460403
1455190235910543855,771648,1455190235910543855,world,0.0582167133689,1.16316795349,1.01740944386,-0.0241772457957,-0.00145638734102,-0.00031691629556,0.999706625938
1455190235919009935,771649,1455190235919009935,world,0.0582049153745,1.16317081451,1.01742994785,-0.0243761036545,-0.00145314412657,-7.57157467888e-05,0.999701857567
1455190235927352882,771650,1455190235927352882,world,0.0582527257502,1.16315770149,1.01747453213,-0.0239949040115,-0.00140666868538,-0.000348756148014,0.999711036682
1455190235935749328,771651,1455190235935749328,world,0.0582117289305,1.16316854954,1.01741123199,-0.0238415580243,-0.00149037805386,-0.000116079114377,0.99971473217
1455190235943644090,771652,1455190235943644090,world,0.0582288056612,1.16322505474,1.01741671562,-0.0241186637431,-0.000954340095632,0.000112628360512,0.999708652496
1455190235952255441,771653,1455190235952255441,world,0.0582046955824,1.16324722767,1.01738739014,-0.0240771640092,-0.00143622932956,-0.000153057146235,0.999709069729
1455190235960614399,771654,1455190235960614399,world,0.0582091771066,1.16328024864,1.01741063595,-0.0239633116871,-0.00124928995501,-0.000209358040593,0.999712049961
1455190235968983613,771655,1455190235968983613,world,0.0582475550473,1.16321480274,1.01742839813,-0.0241632778198,-0.00108861015178,-0.000184116477612,0.999707460403
1455190235977148626,771656,1455190235977148626,world,0.0582058466971,1.16319227219,1.01743733883,-0.0237725451589,-0.000826422998216,-4.37598464487e-05,0.999717056751
1455190235985681361,771657,1455190235985681361,world,0.0581785142422,1.16315281391,1.01744484901,-0.0241066683084,-0.00122475111857,-7.55486398702e-05,0.999708712101
1455190235993785624,771658,1455190235993785624,world,0.0581470131874,1.1631923914,1.01746582985,-0.0237318817526,-0.00179618690163,-0.000105208862806,0.999716818333
1455190236002340432,771659,1455190236002340432,world,0.0581563077867,1.16312074661,1.01743113995,-0.0243814717978,-0.00166955858003,-0.000146836726344,0.999701440334
1455190236010416657,771660,1455190236010416657,world,0.058189406991,1.16322445869,1.01746201515,-0.024074235931,-0.00130174541846,-3.42237908626e-05,0.999709427357
1455190236018900154,771661,1455190236018900154,world,0.0582276657224,1.16318035126,1.01741051674,-0.0245082918555,-0.00110782508273,-0.000419357937062,0.999698936939
1455190236027310143,771662,1455190236027310143,world,0.0582675561309,1.16321110725,1.01736211777,-0.024127824232,-0.00128826370928,-0.00036716440809,0.99970805645
1455190236035910953,771663,1455190236035910953,world,0.0582490004599,1.16322290897,1.01740241051,-0.0242269039154,-0.00113358371891,-0.000259750173427,0.999705851078
1455190236043761801,771664,1455190236043761801,world,0.0581983365119,1.16327869892,1.01738905907,-0.0234431866556,-0.00158869638108,-0.000316441437462,0.999723911285
1455190236052354648,771665,1455190236052354648,world,0.0582114234567,1.16321098804,1.0174138546,-0.0243524070829,-0.000949210079852,-0.000200206312002,0.99970304966
1455190236060442446,771666,1455190236060442446,world,0.0582004114985,1.16316592693,1.0174331665,-0.0235125888139,-0.00142306799535,-8.21135836304e-05,0.999722599983
1455190236069048584,771667,1455190236069048584,world,0.0581939965487,1.1631705761,1.0174343586,-0.0243890080601,-0.00121809763368,-0.00015866717149,0.999701857567
1455190236077225189,771668,1455190236077225189,world,0.0581804402173,1.16320323944,1.01747989655,-0.024066593498,-0.00129867624491,-0.000173626758624,0.999709546566
1455190236085698841,771669,1455190236085698841,world,0.0581518225372,1.16312992573,1.01747786999,-0.0233042258769,-0.00159593927674,-2.73057648883e-05,0.999727189541
1455190236093933311,771670,1455190236093933311,world,0.0581702440977,1.16318643093,1.01745319366,-0.0240232348442,-0.0015443644952,-0.000297890423099,0.999710261822
1455190236102698936,771671,1455190236102698936,world,0.0581815950572,1.1631937027,1.0174369812,-0.0235304757953,-0.00148247764446,-0.00024333006877,0.999722063541
1455190236110534055,771672,1455190236110534055,world,0.058170363307,1.16316008568,1.0173740387,-0.0243052430451,-0.00148589652963,-0.000378221593564,0.999703466892
1455190236119013724,771673,1455190236119013724,world,0.0582165159285,1.16331076622,1.01739418507,-0.0235195141286,-0.00151225901209,-0.000124582235003,0.99972230196
1455190236127246056,771674,1455190236127246056,world,0.0582203604281,1.16320943832,1.017380476,-0.0237396750599,-0.00113783963025,7.02934994479e-06,0.999717533588
1455190236135643563,771675,1455190236135643563,world,0.0582390204072,1.16321182251,1.01739168167,-0.0243021398783,-0.00133365986403,-4.20316646341e-05,0.999703884125
1455190236143818711,771676,1455190236143818711,world,0.0582734011114,1.16319465637,1.01741683483,-0.0243969075382,-0.00105725857429,-0.000172469590325,0.999701797962
1455190236152210953,771677,1455190236152210953,world,0.0581924729049,1.16314709187,1.01745414734,-0.0236360970885,-0.00144604663365,-2.95834288409e-05,0.999719679356
1455190236160718012,771678,1455190236160718012,world,0.0581731013954,1.16315579414,1.01744449139,-0.0243527144194,-0.00142283446621,-0.00011710558465,0.999702513218
1455190236169052425,771679,1455190236169052425,world,0.0581708997488,1.16317451,1.01745200157,-0.0240108445287,-0.00137826532591,-0.000330067297909,0.999710738659
1455190236177230141,771680,1455190236177230141,world,0.0581866651773,1.16318845749,1.0174446106,-0.0239359028637,-0.000939799647313,8.1942343968e-05,0.999713122845
1455190236185554344,771681,1455190236185554344,world,0.0582069419324,1.16320574284,1.01741278172,-0.0243040844798,-0.00151274818927,-0.000315572164254,0.999703466892
1455190236193926298,771682,1455190236193926298,world,0.0581860803068,1.16318321228,1.01740419865,-0.0239865388721,-0.00138684746344,-0.000369337241864,0.999711275101
1455190236202274338,771683,1455190236202274338,world,0.0582193508744,1.16327762604,1.0174151659,-0.0240109879524,-0.00105151417665,-0.000182932708412,0.999711155891
1455190236210262726,771684,1455190236210262726,world,0.058195874095,1.16322505474,1.01745307446,-0.0240366943181,-0.00147816282697,5.01818904013e-05,0.999710023403
1455190236218912173,771685,1455190236218912173,world,0.0582050830126,1.16312873363,1.01743161678,-0.0241905022413,-0.00100683164783,7.1722373832e-05,0.999706864357
1455190236227387078,771686,1455190236227387078,world,0.0582334026694,1.16314482689,1.01743733883,-0.0244652498513,-0.000985836377367,-0.000112578789413,0.999700188637
1455190236235709793,771687,1455190236235709793,world,0.0582679361105,1.1631872654,1.01744198799,-0.024538597092,-0.00113675929606,-0.000181619267096,0.999698221684
1455190236243682870,771688,1455190236243682870,world,0.0582514703274,1.16319739819,1.01745355129,-0.0240690801293,-0.00100446282886,-6.50618603686e-05,0.999709904194
1455190236252283487,771689,1455190236252283487,world,0.058244060725,1.16324794292,1.01742815971,-0.0237569250166,-0.00151084607933,-0.00015365066065,0.999716699123
1455190236260588027,771690,1455190236260588027,world,0.0582280308008,1.16322898865,1.0174227953,-0.0238118041307,-0.00140202254988,-0.000332858762704,0.999715447426
1455190236269015606,771691,1455190236269015606,world,0.0581635348499,1.16317510605,1.01743268967,-0.0236627794802,-0.00132001854945,8.25498718768e-05,0.999719202518
1455190236277043295,771692,1455190236277043295,world,0.0581386908889,1.16324079037,1.01740896702,-0.0240977182984,-0.00131451280322,-0.000186689532711,0.999708771706
1455190236285566172,771693,1455190236285566172,world,0.058149471879,1.16314506531,1.01742327213,-0.0242834091187,-0.00132422358729,-0.000203694246011,0.999704301357
1455190236293967082,771694,1455190236293967082,world,0.0581813901663,1.16316235065,1.01739346981,-0.0245890170336,-0.000876287231222,-0.000165378776728,0.999697327614
1455190236302312959,771695,1455190236302312959,world,0.0582425035536,1.16324293613,1.01748108864,-0.0238564629108,-0.00109923793934,0.000156294452609,0.999714851379
1455190236310535430,771696,1455190236310535430,world,0.0582486465573,1.16319036484,1.01743745804,-0.0240965932608,-0.00117636565119,-0.000152164837345,0.999709010124
1455190236318999328,771697,1455190236318999328,world,0.0582725889981,1.16314983368,1.01745378971,-0.0239354111254,-0.00162300735246,-0.000239578279434,0.99971216917
1455190236327111772,771698,1455190236327111772,world,0.0582076795399,1.16324341297,1.01745903492,-0.0236359033734,-0.00116926361807,-9.79023752734e-05,0.999719977379
1455190236335665118,771699,1455190236335665118,world,0.05817142874,1.16315615177,1.01741874218,-0.0241233147681,-0.00121920811944,-0.000102126323327,0.999708354473
1455190236343792010,771700,1455190236343792010,world,0.0581767782569,1.16316819191,1.01741182804,-0.023818841204,-0.00169761339203,-0.000112915127829,0.999714910984
1455190236352280541,771701,1455190236352280541,world,0.0582053475082,1.16314888,1.01741921902,-0.0242326017469,-0.00130908295978,-0.000221031557885,0.999705553055
1455190236360472857,771702,1455190236360472857,world,0.0582539960742,1.16324234009,1.01740074158,-0.0243632700294,-0.00108801980969,-0.000228663455346,0.999702632427
1455190236369027169,771703,1455190236369027169,world,0.0582493320107,1.16321277618,1.01741325855,-0.0238730050623,-0.00134704250377,-0.000234377759625,0.999714136124
1455190236377179085,771704,1455190236377179085,world,0.0582453049719,1.16319346428,1.0174407959,-0.0240336582065,-0.000952368485741,-0.000112862879178,0.999710798264
1455190236385613524,771705,1455190236385613524,world,0.0581997558475,1.16316616535,1.01738798618,-0.0241083744913,-0.00136991229374,-0.000231355064898,0.999708473682
1455190236394010315,771706,1455190236394010315,world,0.0581489168108,1.16313993931,1.01746535301,-0.0243626013398,-0.0014916631626,-8.65194015205e-05,0.99970215559
1455190236402280306,771707,1455190236402280306,world,0.0581561252475,1.16319680214,1.0174665451,-0.0240424014628,-0.00165334017947,5.22150112374e-05,0.999709665775
1455190236410515311,771708,1455190236410515311,world,0.058208797127,1.16318583488,1.01743257046,-0.0239831842482,-0.00122745125555,-6.89970256644e-05,0.999711692333
1455190236418970710,771709,1455190236418970710,world,0.0582125633955,1.16317117214,1.01744425297,-0.0239603221416,-0.00128758128267,-0.000172017593286,0.999712109566
1455190236427405065,771710,1455190236427405065,world,0.0582161918283,1.1631821394,1.01740825176,-0.0239541120827,-0.00122104911134,-9.5262825198e-05,0.999712347984
1455190236435690416,771711,1455190236435690416,world,0.0582182146609,1.16324198246,1.01740837097,-0.0238203387707,-0.00143010669854,-0.000125427788589,0.999715268612
1455190236443862429,771712,1455190236443862429,world,0.0582001358271,1.16318082809,1.01740026474,-0.0240279901773,-0.0013224122813,-0.000179902155651,0.99971050024
1455190236452230967,771713,1455190236452230967,world,0.0582631230354,1.16327822208,1.01739919186,-0.0242715030909,-0.00126437016297,-0.000215089457924,0.999704658985
1455190236460444589,771714,1455190236460444589,world,0.0582346394658,1.16316199303,1.01741743088,-0.0244460143149,-0.0013043343788,-0.000216417261981,0.999700248241
1455190236469058986,771715,1455190236469058986,world,0.058191280812,1.16315424442,1.01742184162,-0.024528503418,-0.00108761666343,-0.000156096983119,0.999698579311
1455190236477150791,771716,1455190236477150791,world,0.0581955350935,1.16318619251,1.01743090153,-0.0237494911999,-0.00138608971611,-2.18649583985e-05,0.999716997147
1455190236485720624,771717,1455190236485720624,world,0.058166731149,1.16317903996,1.01744627953,-0.024328161031,-0.00143354572356,-0.000382602564059,0.999702990055
1455190236494021634,771718,1455190236494021634,world,0.0581725351512,1.16319167614,1.01743006706,-0.0238588638604,-0.00160594505724,-0.000320426450344,0.999714016914
1455190236502414603,771719,1455190236502414603,world,0.0581905804574,1.16325998306,1.01743590832,-0.023498730734,-0.00154322816525,-8.73810131452e-05,0.999722778797
1455190236510443178,771720,1455190236510443178,world,0.0581861361861,1.16320121288,1.01745116711,-0.0239969678223,-0.000946981424931,0.000176900270162,0.999711573124
1455190236518857447,771721,1455190236518857447,world,0.0582132525742,1.1632553339,1.01744198799,-0.0236278679222,-0.00153405207675,-3.55795746145e-05,0.99971973896
1455190236527202474,771722,1455190236527202474,world,0.0582448169589,1.163195014,1.01740562916,-0.0243483427912,-0.00129386456683,-0.000151238738908,0.999702692032
1455190236535664265,771723,1455190236535664265,world,0.0582498647273,1.16316211224,1.01744163036,-0.024103263393,-0.00112983689178,-0.000172327025211,0.99970883131
1455190236543865053,771724,1455190236543865053,world,0.0582394227386,1.16315209866,1.01743042469,-0.0241060331464,-0.00132295291405,-0.000343566120137,0.999708533287
1455190236552283215,771725,1455190236552283215,world,0.0581844933331,1.16313898563,1.01741063595,-0.0247481949627,-0.00132559391204,-0.00028667555307,0.999692797661
1455190236560545491,771726,1455190236560545491,world,0.0582525283098,1.16319870949,1.017390728,-0.0245047863573,-0.00143166515045,-0.000461967487354,0.999698638916
1455190236568999252,771727,1455190236568999252,world,0.0581906549633,1.16322398186,1.01740801334,-0.0237193163484,-0.00164814363234,-0.00025667072623,0.999717354774
1455190236577067455,771728,1455190236577067455,world,0.0582431331277,1.16323053837,1.01738464832,-0.0245220530778,-0.00125757581554,-0.000335519755026,0.999698460102
1455190236585484674,771729,1455190236585484674,world,0.0581965297461,1.16326415539,1.01743268967,-0.0232732370496,-0.00153925188351,-9.64339560596e-05,0.999728024006
1455190236594078384,771730,1455190236594078384,world,0.0581830739975,1.16324031353,1.01743066311,-0.0241209734231,-0.00142703636084,-0.000202360286494,0.99970805645
1455190236602282623,771731,1455190236602282623,world,0.0581708587706,1.16318666935,1.01743257046,-0.0242164116353,-0.00127161748242,-8.07025644463e-05,0.999705970287
1455190236610546317,771732,1455190236610546317,world,0.0581618994474,1.16315674782,1.01745283604,-0.0242867749184,-0.00119256821927,-0.000149537649122,0.999704420567
1455190236618921880,771733,1455190236618921880,world,0.0582222416997,1.16317296028,1.01748394966,-0.0242070946842,-0.00125632120762,-0.000270970835118,0.999706149101
1455190236627360882,771734,1455190236627360882,world,0.0582232773304,1.16322648525,1.01744437218,-0.0244145318866,-0.00125121709425,-0.000120324461022,0.999701201916
1455190236635626359,771735,1455190236635626359,world,0.0582410283387,1.16321063042,1.0174227953,-0.0245202835649,-0.00125631014816,-0.000325981207425,0.999698519707
1455190236643806143,771736,1455190236643806143,world,0.0582374185324,1.16320371628,1.0174189806,-0.0242546517402,-0.00104030279908,-0.000198584471946,0.999705314636
1455190236652121025,771737,1455190236652121025,world,0.0582245178521,1.16325247288,1.01739811897,-0.0236994437873,-0.00118759670295,-0.000144452016684,0.999718427658
1455190236660606554,771738,1455190236660606554,world,0.0582158267498,1.1632219553,1.01737356186,-0.0240280348808,-0.00140884984285,-0.000282356893877,0.999710321426
1455190236668864563,771739,1455190236668864563,world,0.0582071170211,1.16324162483,1.01739931107,-0.0235101487488,-0.0017660286976,-6.0736805608e-05,0.999722063541
1455190236677201684,771740,1455190236677201684,world,0.0582155734301,1.16317772865,1.01739096642,-0.0245550181717,-0.0012698151404,-0.000363647035556,0.999697566032
1455190236685612577,771741,1455190236685612577,world,0.058206718415,1.16325998306,1.01745164394,-0.0239517893642,-0.00141798879486,-2.22862345254e-05,0.999712109566
1455190236693905068,771742,1455190236693905068,world,0.0581824630499,1.16313433647,1.01749014854,-0.0243516415358,-0.00133811321575,6.21994513494e-06,0.999702572823
1455190236702385853,771743,1455190236702385853,world,0.0582030378282,1.16317558289,1.01745438576,-0.0246659647673,-0.00105924520176,5.47749623365e-05,0.999695241451
1455190236710485985,771744,1455190236710485985,world,0.0581567063928,1.16322588921,1.01746070385,-0.0241014044732,-0.00141895830166,-0.000121691075037,0.999708533287
1455190236719039268,771745,1455190236719039268,world,0.0581819601357,1.16320180893,1.01744389534,-0.0238794256002,-0.00127648736816,-0.000109928354505,0.999714136124
1455190236727391045,771746,1455190236727391045,world,0.0582062676549,1.16326749325,1.01741218567,-0.0234743356705,-0.00146717310417,-0.000127777660964,0.999723374844
1455190236735679309,771747,1455190236735679309,world,0.0582477524877,1.16330564022,1.01741802692,-0.0240247324109,-0.00117717916146,-0.00012212828733,0.999710679054
1455190236743865175,771748,1455190236743865175,world,0.0582501851022,1.16322696209,1.01741456985,-0.0239922720939,-0.00125814124476,-0.000266722665401,0.999711334705
1455190236752057488,771749,1455190236752057488,world,0.0582167692482,1.16321587563,1.01741302013,-0.0233893040568,-0.0017154206289,-9.89956824924e-05,0.999725043774
1455190236760471869,771750,1455190236760471869,world,0.0582260042429,1.16325700283,1.01744866371,-0.023949963972,-0.00127753603738,-0.000110943750769,0.999712407589
1455190236769032940,771751,1455190236769032940,world,0.0582186691463,1.1631680727,1.01744151115,-0.0244386959821,-0.00146121240687,-0.000346676097251,0.999700248241
1455190236777202891,771752,1455190236777202891,world,0.0582003965974,1.16316914558,1.01742196083,-0.0245327726007,-0.00129107758403,-0.000173918218934,0.999698221684
1455190236785411297,771753,1455190236785411297,world,0.0581870526075,1.16314673424,1.01742935181,-0.024241277948,-0.001394495368,-0.00024172879057,0.999705195427
1455190236794052039,771754,1455190236794052039,world,0.0582373701036,1.16324162483,1.01741409302,-0.0240923240781,-0.00137713563163,-0.000295251404168,0.999708771706
1455190236802311616,771755,1455190236802311616,world,0.0582241117954,1.16323041916,1.01740658283,-0.0239522848278,-0.00129396945704,-0.000323074433254,0.99971228838
1455190236810527840,771756,1455190236810527840,world,0.0582368150353,1.16322386265,1.01738166809,-0.0241569187492,-0.00107645394746,-0.000248006923357,0.999707579613
1455190236818830817,771757,1455190236818830817,world,0.0581769123673,1.16316604614,1.01742827892,-0.0239503849298,-0.00137768895365,-0.000219527515583,0.99971228838
1455190236827236942,771758,1455190236827236942,world,0.0581710003316,1.16320288181,1.01743197441,-0.0242341663688,-0.00133890321013,-0.000187646364793,0.99970549345
1455190236835624679,771759,1455190236835624679,world,0.0581869073212,1.16315555573,1.01743113995,-0.0242191348225,-0.00156972103287,-0.000230020217714,0.99970549345
1455190236843989108,771760,1455190236843989108,world,0.0582362189889,1.16318118572,1.01745355129,-0.0243426673114,-0.00134188390803,-0.00029438000638,0.999702811241
1455190236852273690,771761,1455190236852273690,world,0.0582336038351,1.163210392,1.0174459219,-0.0239197574556,-0.00148235668894,-1.96162309294e-05,0.999712884426
1455190236860687994,771762,1455190236860687994,world,0.0582821927965,1.16321718693,1.01740765572,-0.0245509874076,-0.00107469293289,-0.000277813931461,0.999697983265
1455190236869041501,771763,1455190236869041501,world,0.0582403838634,1.16329169273,1.01744508743,-0.0240937508643,-0.00144801451825,-0.000232736594626,0.999708652496
1455190236877240466,771764,1455190236877240466,world,0.0582103654742,1.1631988287,1.01738488674,-0.0241712443531,-0.00129062496126,-0.000279510772089,0.999706983566
1455190236885513724,771765,1455190236885513724,world,0.0582192093134,1.16324400902,1.017390728,-0.0240094158798,-0.00116912845988,-9.4410708698e-05,0.999711155891
1455190236894184526,771766,1455190236894184526,world,0.0582048520446,1.1632463932,1.01740396023,-0.0240055061877,-0.00140681001358,-9.63932325249e-05,0.999710857868
1455190236902369958,771767,1455190236902369958,world,0.0581913888454,1.16326391697,1.01743042469,-0.0238380432129,-0.00146935507655,1.76555095095e-05,0.999714791775
1455190236910501826,771768,1455190236910501826,world,0.0582122318447,1.16319799423,1.01744437218,-0.0241190064698,-0.00130815780722,-0.000354275340214,0.999708175659
1455190236918853709,771769,1455190236918853709,world,0.0582056082785,1.16320931911,1.01753497124,-0.0240838900208,-0.00137360347435,-3.04168361254e-06,0.999709069729
1455190236927460440,771770,1455190236927460440,world,0.0581898465753,1.16311812401,1.01746118069,-0.0237652622163,-0.00120579393115,-0.0001781736064,0.999716877937
1455190236935724154,771771,1455190236935724154,world,0.0581892728806,1.16315233707,1.01746094227,-0.0239300765097,-0.0011222345056,0.000132808461785,0.999713003635
1455190236943801071,771772,1455190236943801071,world,0.0581972524524,1.16319048405,1.01744568348,-0.0238374657929,-0.00145242922008,-8.86244160938e-05,0.999714791775
1455190236952305723,771773,1455190236952305723,world,0.0582133308053,1.1631783247,1.01737713814,-0.0241827592254,-0.00154561549425,-0.000279263564153,0.99970638752
1455190236960776987,771774,1455190236960776987,world,0.0582469142973,1.16323029995,1.01736605167,-0.0240444205701,-0.00131617556326,-0.00012624305964,0.999710023403
1455190236969229113,771775,1455190236969229113,world,0.0582162477076,1.1632283926,1.01740419865,-0.0240412261337,-0.00111499184277,-0.000387310545193,0.999710381031
1455190236977236720,771776,1455190236977236720,world,0.0582438409328,1.16321074963,1.01738536358,-0.0245583504438,-0.00111423514318,-0.000162929354701,0.999697804451
1455190236985505313,771777,1455190236985505313,world,0.0581996999681,1.16320157051,1.0174343586,-0.0242171790451,-0.00133367127273,-0.000188369696843,0.999705910683
1455190236994041571,771778,1455190236994041571,world,0.0581763386726,1.16313648224,1.01745259762,-0.0241735707968,-0.00153490155935,-0.000259363034274,0.999706566334
1455190237002338416,771779,1455190237002338416,world,0.0581468418241,1.16313505173,1.01747405529,-0.0241417121142,-0.00135842512827,-8.38627893245e-05,0.999707698822
1455190237010481011,771780,1455190237010481011,world,0.0581945031881,1.16317653656,1.01746428013,-0.0245719589293,-0.0011119695846,-0.000438074435806,0.999697387218
1455190237018768265,771781,1455190237018768265,world,0.0581872314215,1.16324114799,1.01750504971,-0.0237436927855,-0.00136902777012,2.48348242167e-05,0.999717235565
1455190237027325543,771782,1455190237027325543,world,0.0582096204162,1.16317498684,1.01744163036,-0.0243876259774,-0.000925301748794,-0.000380182609661,0.999702095985
1455190237035818424,771783,1455190237035818424,world,0.0582062788308,1.16321015358,1.01740527153,-0.0243422500789,-0.0015131830005,-0.00067106296774,0.999702394009
1455190237043760188,771784,1455190237043760188,world,0.0581738986075,1.16319835186,1.01741909981,-0.0239808298647,-0.00117992179003,-0.000170326748048,0.999711692333
1455190237052313632,771785,1455190237052313632,world,0.0581786967814,1.16326093674,1.01741278172,-0.0238490961492,-0.001374585554,-0.000163832228282,0.999714672565
1455190237060764068,771786,1455190237060764068,world,0.0582083463669,1.16314804554,1.01739668846,-0.0246955268085,-0.00146305072121,-0.000476508866996,0.99969381094
1455190237068936418,771787,1455190237068936418,world,0.0582151301205,1.16319596767,1.01743602753,-0.0244014672935,-0.00107080291491,-5.08853554493e-05,0.999701678753
1455190237077261711,771788,1455190237077261711,world,0.0582294277847,1.16315603256,1.01742815971,-0.0241984166205,-0.00170762592461,4.64344921056e-05,0.999705791473
1455190237085583474,771789,1455190237085583474,world,0.0582397431135,1.16315543652,1.01744997501,-0.024172315374,-0.000834124686662,-0.000110858425614,0.999707460403
1455190237093830024,771790,1455190237093830024,world,0.0582153946161,1.163179636,1.01743602753,-0.02391516231,-0.0014959720429,-0.00019105602405,0.999712944031
1455190237102286242,771791,1455190237102286242,world,0.0582063235343,1.16320586205,1.01741170883,-0.0236882511526,-0.00136708584614,-0.000200440365006,0.999718546867
1455190237110519375,771792,1455190237110519375,world,0.0581756010652,1.16327381134,1.01745641232,-0.0235694590956,-0.00144030689262,-0.000108679589175,0.999721169472
1455190237118808565,771793,1455190237118808565,world,0.0581388957798,1.16314125061,1.01741695404,-0.0236557610333,-0.00193738995586,-0.000370966241462,0.999718248844
1455190237127253263,771794,1455190237127253263,world,0.0581837035716,1.16316413879,1.01744329929,-0.0245312266052,-0.00118759763427,-0.000198809109861,0.999698340893
1455190237135653954,771795,1455190237135653954,world,0.0582178644836,1.16319334507,1.0174254179,-0.0244210883975,-0.00110387301538,-0.000190827937331,0.999701201916
1455190237144010374,771796,1455190237144010374,world,0.0581856407225,1.16319715977,1.01744616032,-0.0239622872323,-0.0014661004534,-0.000119998781884,0.999711871147
1455190237152240763,771797,1455190237152240763,world,0.0582193396986,1.16316151619,1.01742827892,-0.024316271767,-0.00140920863487,-9.81319044513e-06,0.999703347683
1455190237160578245,771798,1455190237160578245,world,0.0581943430007,1.16315686703,1.01742017269,-0.0240376945585,-0.00157000613399,-0.000238700769842,0.999709844589
1455190237169013266,771799,1455190237169013266,world,0.0582131892443,1.16319537163,1.01744186878,-0.0243161078542,-0.00101904955227,-2.91666456178e-05,0.99970382452
1455190237177095832,771800,1455190237177095832,world,0.0582240112126,1.16325807571,1.01740515232,-0.0234389714897,-0.00139396777377,-9.24373161979e-05,0.999724388123
1455190237185535112,771801,1455190237185535112,world,0.0582259446383,1.16326510906,1.01740777493,-0.0237165614963,-0.00147925573401,-8.64157846081e-05,0.999717652798
1455190237194099546,771802,1455190237194099546,world,0.0582138597965,1.16322660446,1.01744115353,-0.0237997192889,-0.00109954748768,-1.81874311238e-05,0.999716222286
1455190237202314493,771803,1455190237202314493,world,0.0582204982638,1.16317033768,1.01737952232,-0.0238491091877,-0.00133660889696,-4.64952900074e-05,0.99971473217
1455190237210330614,771804,1455190237210330614,world,0.0581540875137,1.16316843033,1.01744556427,-0.0239025484771,-0.00162613915745,-0.000164446493727,0.999713003635
1455190237218855764,771805,1455190237218855764,world,0.0581430867314,1.1631462574,1.01746881008,-0.0240877792239,-0.00133042153902,-0.000209803241887,0.99970895052
1455190237227334920,771806,1455190237227334920,world,0.0581678636372,1.16320455074,1.01747596264,-0.0239871051162,-0.0012688152492,-7.83847426646e-05,0.999711573124
1455190237235639315,771807,1455190237235639315,world,0.0581999644637,1.16314291954,1.01742970943,-0.0243614986539,-0.00136787851807,-0.000143793469761,0.999702274799
1455190237243730780,771808,1455190237243730780,world,0.0582237280905,1.16318535805,1.01742911339,-0.0236464943737,-0.0011730940314,-0.000161738003953,0.99971973896
1455190237252240360,771809,1455190237252240360,world,0.0582532808185,1.16321468353,1.01741337776,-0.0242046471685,-0.000981898163445,-5.41305926163e-05,0.999706566334
1455190237260647281,771810,1455190237260647281,world,0.0582144670188,1.16325712204,1.01741850376,-0.0239546895027,-0.00157386076171,-0.000125381993712,0.999711871147
1455190237268959569,771811,1455190237268959569,world,0.0582168921828,1.16320157051,1.01739501953,-0.0238617584109,-0.0013999218354,-0.000225598254474,0.999714314938
1455190237277355756,771812,1455190237277355756,world,0.0581870898604,1.16315722466,1.01736986637,-0.0243143029511,-0.00143809663132,-0.000237777698203,0.999703407288
1455190237285587118,771813,1455190237285587118,world,0.0582027509809,1.16322314739,1.01742434502,-0.0242659114301,-0.00164904491976,-0.000209975332837,0.999704241753
1455190237293886591,771814,1455190237293886591,world,0.0582114160061,1.16312754154,1.01744163036,-0.0240619126707,-0.00116456928663,-0.000141674885526,0.999709784985
1455190237302369281,771815,1455190237302369281,world,0.05824316293,1.16319620609,1.01743936539,-0.0245565231889,-0.00101124378853,-0.000203665695153,0.99969792366
1455190237310437364,771816,1455190237310437364,world,0.058194655925,1.16314828396,1.01747000217,-0.0246906150132,-0.001135646482,-0.000154245484737,0.999694466591
1455190237318858483,771817,1455190237318858483,world,0.058162547648,1.16317260265,1.01744568348,-0.0243967715651,-0.00122210383415,-0.000362798688002,0.999701619148
1455190237327315316,771818,1455190237327315316,world,0.0581684634089,1.16321647167,1.01745820045,-0.0236943364143,-0.00173105311114,-6.74385664752e-05,0.999717831612
1455190237335655458,771819,1455190237335655458,world,0.0581569075584,1.16315579414,1.01744246483,-0.0241189133376,-0.00169633456971,-0.000403788784752,0.999707579613
1455190237343854041,771820,1455190237343854041,world,0.0582326054573,1.1632297039,1.01743066311,-0.0236563216895,-0.000992534216493,8.38135529193e-05,0.999719679356
1455190237352220774,771821,1455190237352220774,world,0.0582487508655,1.16319727898,1.01738584042,-0.0238716900349,-0.00166666659061,-0.000374581519281,0.999713659286
1455190237360551274,771822,1455190237360551274,world,0.0582210496068,1.16323423386,1.01741099358,-0.0240683648735,-0.00125827931333,-0.000224032177357,0.999709546566
1455190237369013958,771823,1455190237369013958,world,0.0582426711917,1.16322982311,1.01741635799,-0.0243619326502,-0.000725589168724,-2.80164276774e-05,0.999702990055
1455190237377209565,771824,1455190237377209565,world,0.0581940598786,1.16320931911,1.01746809483,-0.0239030532539,-0.00147102843039,-0.000123498190078,0.999713242054
1455190237385372297,771825,1455190237385372297,world,0.0581984594464,1.16320228577,1.01744234562,-0.0242870487273,-0.00136796419974,9.64458286035e-06,0.999704182148
1455190237394134775,771826,1455190237394134775,world,0.0581994093955,1.16318273544,1.01742827892,-0.0241305977106,-0.00136725849006,-8.57420818647e-05,0.999707877636
1455190237402360098,771827,1455190237402360098,world,0.0581729151309,1.1632361412,1.01744377613,-0.0237645544112,-0.0014167164918,-0.000104040023871,0.999716579914
1455190237410458404,771828,1455190237410458404,world,0.0582108199596,1.16321516037,1.01746594906,-0.023991279304,-0.00132581684738,-5.85395719099e-05,0.999711334705
1455190237418971961,771829,1455190237418971961,world,0.0582323558629,1.16324841976,1.01745021343,-0.0240330751985,-0.000795756233856,-0.00021716937772,0.999710917473
1455190237427423088,771830,1455190237427423088,world,0.058180782944,1.16319942474,1.01743066311,-0.0244365949184,-0.00121024937835,-0.000246754381806,0.999700605869
1455190237435686817,771831,1455190237435686817,world,0.058182220906,1.16314637661,1.01744508743,-0.0243145115674,-0.00177147029899,-0.0002866058785,0.999702811241
1455190237444208065,771832,1455190237444208065,world,0.0581740066409,1.16316342354,1.01745069027,-0.0242188200355,-0.00144406047184,-0.000284440407995,0.999705612659
1455190237452185019,771833,1455190237452185019,world,0.058201789856,1.16316878796,1.01740670204,-0.0246190950274,-0.00118118606042,-0.000194892418222,0.999696195126
1455190237460731515,771834,1455190237460731515,world,0.0582480952144,1.16321074963,1.01743805408,-0.0245728995651,-0.00111539987847,-0.000208210753044,0.999697446823
1455190237468896709,771835,1455190237468896709,world,0.0582255460322,1.1632424593,1.01739776134,-0.0239108577371,-0.00126846507192,-0.000163780001458,0.999713301659
1455190237477107235,771836,1455190237477107235,world,0.0582256019115,1.16318929195,1.01737880707,-0.024132270366,-0.000882211897988,-0.000163023491041,0.999708473682
1455190237485472101,771837,1455190237485472101,world,0.0582128241658,1.16319859028,1.01738619804,-0.0239784941077,-0.0014642215101,-0.000348642759491,0.99971139431
1455190237493788270,771838,1455190237493788270,world,0.0582577884197,1.16321468353,1.01738774776,-0.0239604264498,-0.00147373334039,-0.000402948789997,0.999711811543
1455190237502418150,771839,1455190237502418150,world,0.058191370219,1.16320800781,1.01745426655,-0.0240024738014,-0.00115176208783,-0.000113987793156,0.999711275101
1455190237510588824,771840,1455190237510588824,world,0.0581978745759,1.16322278976,1.01746308804,-0.023946704343,-0.00138373929076,-0.000108583692054,0.99971228838
1455190237518779349,771841,1455190237518779349,world,0.0582169219851,1.16318464279,1.01746821404,-0.0242967642844,-0.00130194902886,-0.000155302608619,0.999703943729
1455190237527376832,771842,1455190237527376832,world,0.0581251755357,1.16319644451,1.0174831152,-0.0241577681154,-0.00169162626844,-7.76770539233e-05,0.999706745148
1455190237535495929,771843,1455190237535495929,world,0.0581996813416,1.16310989857,1.01744496822,-0.0244507901371,-0.00112470798194,-0.000356276374077,0.999700367451
1455190237543713974,771844,1455190237543713974,world,0.0582136847079,1.16318631172,1.01746428013,-0.0241422820836,-0.00131771562155,-0.000217485096073,0.999707639217
1455190237552205142,771845,1455190237552205142,world,0.0581818073988,1.16320335865,1.01741719246,-0.0246912240982,-0.000773738953285,-0.000121265788039,0.999694824219
1455190237560491879,771846,1455190237560491879,world,0.0582348369062,1.16319990158,1.01736497879,-0.0239467024803,-0.000995762413368,-5.96288155066e-05,0.999712824821
1455190237569007045,771847,1455190237569007045,world,0.0582419522107,1.16325700283,1.0174022913,-0.0235514994711,-0.00148494332097,-0.000233594095334,0.9997215271
1455190237577172067,771848,1455190237577172067,world,0.0582012683153,1.16324985027,1.01740479469,-0.0243252534419,-0.00119011115748,-0.000158736191224,0.999703466892
1455190237585729824,771849,1455190237585729824,world,0.0582243986428,1.16313755512,1.0174523592,-0.0241305287927,-0.00141770392656,-0.000445533485617,0.999707818031
1455190237594211595,771850,1455190237594211595,world,0.058231767267,1.16318392754,1.01745164394,-0.0240862369537,-0.00136902648956,-0.000397486088332,0.999708890915
1455190237602199230,771851,1455190237602199230,world,0.058188971132,1.16315031052,1.0174459219,-0.0240469761193,-0.00110346509609,-6.42500381218e-05,0.999710321426
1455190237610626041,771852,1455190237610626041,world,0.0581770837307,1.16312551498,1.0174857378,-0.0241332370788,-0.00140485761221,-0.000226399555686,0.999707758427
1455190237618761421,771853,1455190237618761421,world,0.0582443624735,1.16317915916,1.0174241066,-0.0240139793605,-0.00129647681024,-0.00029664702015,0.999710738659
1455190237627397536,771854,1455190237627397536,world,0.0582092478871,1.16317152977,1.0174202919,-0.0243367478251,-0.00106202461757,-0.000338955869665,0.999703228474
1455190237635625573,771855,1455190237635625573,world,0.0581925921142,1.16326081753,1.01746380329,-0.0240033883601,-0.000896401877981,-0.000114922011562,0.999711573124
1455190237643787918,771856,1455190237643787918,world,0.0582391284406,1.16321146488,1.01738965511,-0.0238468740135,-0.00154120929074,-0.000347617693478,0.999714374542
1455190237652136040,771857,1455190237652136040,world,0.0582169480622,1.1632335186,1.0174074173,-0.0242443587631,-0.00106931431219,-0.000401857658289,0.99970549345
1455190237660625103,771858,1455190237660625103,world,0.0581788234413,1.16317725182,1.01740574837,-0.0243560671806,-0.00114116061013,-0.000263055320829,0.999702692032
1455190237668924076,771859,1455190237668924076,world,0.0582327768207,1.16319870949,1.01740181446,-0.0239389557391,-0.00140824820846,-0.000256704748608,0.999712407589
1455190237677114842,771860,1455190237677114842,world,0.0582309775054,1.16324675083,1.01740813255,-0.0242353379726,-0.00135257188231,-0.000159579853062,0.999705433846
1455190237685434137,771861,1455190237685434137,world,0.0582403503358,1.16320240498,1.01742303371,-0.0243509821594,-0.00130955083296,-0.000138699659146,0.999702692032
1455190237694023150,771862,1455190237694023150,world,0.058252800256,1.16320776939,1.01744735241,-0.0240834467113,-0.00140651513357,-0.000257148582023,0.99970895052
1455190237702415813,771863,1455190237702415813,world,0.0582145638764,1.16322684288,1.01742362976,-0.0242562517524,-0.00119541527238,-0.00024706844124,0.999705076218
1455190237710462424,771864,1455190237710462424,world,0.0582301057875,1.16321361065,1.01746070385,-0.0248153824359,-0.000645955034997,-0.000195526503376,0.999691903591
1455190237718760512,771865,1455190237718760512,world,0.0582421980798,1.16325712204,1.01741266251,-0.0243921689689,-0.00114869640674,-0.000200461086934,0.999701857567
1455190237727293747,771866,1455190237727293747,world,0.0582123175263,1.16329729557,1.01740407944,-0.0236249528825,-0.0014793004375,-6.24052117928e-05,0.999719798565
1455190237735463363,771867,1455190237735463363,world,0.0582494772971,1.16324114799,1.01743531227,-0.0241555161774,-0.00133900006767,-0.000201254981221,0.999707341194
1455190237743828460,771868,1455190237743828460,world,0.0582544095814,1.1632887125,1.01743602753,-0.0242231171578,-0.000969610060565,-0.000113828820758,0.999706149101
1455190237752179781,771869,1455190237752179781,world,0.0582443885505,1.16319286823,1.01741182804,-0.0245403982699,-0.00123316701502,-0.000135824389872,0.99969804287
1455190237760474720,771870,1455190237760474720,world,0.0581886135042,1.16323840618,1.01746249199,-0.0244068671018,-0.00113140128087,-0.00012293967302,0.999701499939
1455190237769052518,771871,1455190237769052518,world,0.0582544505596,1.16322648525,1.01743543148,-0.0242907572538,-0.0010539611103,3.34546639351e-05,0.999704420567
1455190237777210531,771872,1455190237777210531,world,0.0582627020776,1.16331505775,1.01740264893,-0.0239492990077,-0.00139291305095,-8.1978723756e-05,0.999712228775
1455190237785361564,771873,1455190237785361564,world,0.0582360811532,1.16323840618,1.01741814613,-0.0240298379213,-0.0013259811094,-0.00024355253845,0.999710381031
