%time,field.header.seq,field.header.stamp,field.header.frame_id,field.pose.position.x,field.pose.position.y,field.pose.position.z,field.pose.orientation.x,field.pose.orientation.y,field.pose.orientation.z,field.pose.orientation.w
1455189615140025922,697156,1455189615140025922,world,0.13266916573,0.352982342243,1.02241110802,0.0260019004345,0.000810669444036,0.0585206113756,0.997947275639
1455189615148346762,697157,1455189615148346762,world,0.13267968595,0.352976709604,1.02241039276,0.0259893443435,0.00179624056909,0.0579053089023,0.99798220396
1455189615156675984,697158,1455189615156675984,world,0.132620871067,0.352936297655,1.02241301537,0.0264169368893,0.00125242234208,0.059117205441,0.997900664806
1455189615165060032,697159,1455189615165060032,world,0.132566615939,0.352909147739,1.02243518829,0.0260163880885,0.00230183219537,0.0590819828212,0.997911512852
1455189615173539212,697160,1455189615173539212,world,0.132620498538,0.352934479713,1.02246260643,0.0257305707783,0.00221277703531,0.0586745627224,0.997943043709
1455189615181722365,697161,1455189615181722365,world,0.132569715381,0.352956801653,1.02232170105,0.0267754364759,0.00140654388815,0.0595178231597,0.997867166996
1455189615190164964,697162,1455189615190164964,world,0.132506996393,0.352941721678,1.02241241932,0.0254114102572,0.000521080510225,0.0588582903147,0.99794280529
1455189615198535287,697163,1455189615198535287,world,0.132623225451,0.352907657623,1.02242910862,0.0262405183166,0.000238518972765,0.0594670176506,0.997885286808
1455189615206865147,697164,1455189615206865147,world,0.132580459118,0.352923840284,1.02249836922,0.0263014882803,0.001576086157,0.058686606586,0.997928738594
1455189615214917722,697165,1455189615214917722,world,0.132566556334,0.352920860052,1.02244102955,0.0262353010476,0.000925959437154,0.0592068918049,0.997900485992
1455189615223538866,697166,1455189615223538866,world,0.132685035467,0.352808833122,1.02253603935,0.0260710865259,0.00176485546399,0.0600052550435,0.997856020927
1455189615231739830,697167,1455189615231739830,world,0.132699042559,0.35286834836,1.02246654034,0.0260963346809,0.00145958003122,0.0597605220973,0.997870564461
1455189615240242913,697168,1455189615240242913,world,0.132654115558,0.352872461081,1.02243387699,0.0257682297379,0.00134288112167,0.0597306452692,0.997881054878
1455189615248534573,697169,1455189615248534573,world,0.132564023137,0.352923989296,1.02246308327,0.0261630304158,0.00275209126994,0.0597295276821,0.997867941856
1455189615256843368,697170,1455189615256843368,world,0.132641226053,0.352906316519,1.0223968029,0.026219855994,0.000486532604555,0.0591034591198,0.997907459736
1455189615265105323,697171,1455189615265105323,world,0.132541164756,0.352899581194,1.02260756493,0.0253070779145,0.000850290409289,0.0582288280129,0.997982084751
1455189615273642135,697172,1455189615273642135,world,0.132560491562,0.352937281132,1.02246141434,0.0255722254515,0.00137362675741,0.0592694617808,0.997913479805
1455189615281817107,697173,1455189615281817107,world,0.13272768259,0.352864414454,1.02243161201,0.0255771428347,0.00218506157398,0.0586664825678,0.997947514057
1455189615290103281,697174,1455189615290103281,world,0.132498010993,0.352929472923,1.02244150639,0.0262750405818,0.00170193053782,0.0583586655557,0.997948467731
1455189615298310566,697175,1455189615298310566,world,0.132494851947,0.352999210358,1.0225738287,0.0251529887319,0.000702103192452,0.0589838884771,0.997941851616
1455189615306757922,697176,1455189615306757922,world,0.132660284638,0.352832049131,1.0225353241,0.0265572406352,0.00165855849627,0.0612553022802,0.997767448425
1455189615315030571,697177,1455189615315030571,world,0.13263528049,0.352925032377,1.02245008945,0.0262444224209,0.000641134101897,0.0586336106062,0.997934401035
1455189615323344741,697178,1455189615323344741,world,0.132655709982,0.352915346622,1.02249550819,0.026466621086,0.00154022919014,0.0587396249175,0.997921288013
1455189615331737161,697179,1455189615331737161,world,0.132589653134,0.352947473526,1.0225007534,0.0262367408723,0.00132075953297,0.0589992143214,0.997912347317
1455189615340146361,697180,1455189615340146361,world,0.132613301277,0.352878302336,1.02256774902,0.0260144248605,0.00160664576106,0.0585944131017,0.997941613197
1455189615348264692,697181,1455189615348264692,world,0.132589414716,0.352915138006,1.02239871025,0.025701303035,0.0013908771798,0.059248816222,0.997911453247
1455189615356611609,697182,1455189615356611609,world,0.132637470961,0.352885752916,1.02249372005,0.0260463748127,0.00217390246689,0.0594755113125,0.997887551785
1455189615365018597,697183,1455189615365018597,world,0.132598429918,0.352863609791,1.02238273621,0.0261097755283,0.00110901659355,0.0592904984951,0.997898638248
1455189615373531624,697184,1455189615373531624,world,0.132721811533,0.352890610695,1.02243363857,0.0267054866999,0.00100385351107,0.0593213252723,0.997881174088
1455189615381430538,697185,1455189615381430538,world,0.132680252194,0.352832138538,1.02246248722,0.0259258132428,0.00151907000691,0.0599165260792,0.997865557671
1455189615390089332,697186,1455189615390089332,world,0.132638320327,0.352828234434,1.02246034145,0.0262326784432,0.00123858393636,0.0603471919894,0.997831940651
1455189615398544926,697187,1455189615398544926,world,0.132499694824,0.352911502123,1.02250063419,0.0264622103423,0.00137658801395,0.0592246428132,0.997892975807
1455189615406712565,697188,1455189615406712565,world,0.132573276758,0.352935880423,1.02248096466,0.0263538509607,0.00252765906043,0.0580642595887,0.997961819172
1455189615414835548,697189,1455189615414835548,world,0.132561102509,0.352824181318,1.02249991894,0.0258232336491,-0.00075589568587,0.0599265955389,0.997868478298
1455189615423316228,697190,1455189615423316228,world,0.132491275668,0.35297948122,1.02252399921,0.0261697284877,0.00145667314064,0.0591497942805,0.997904956341
1455189615431601943,697191,1455189615431601943,world,0.13260486722,0.352919250727,1.02244699001,0.0259577929974,0.00144046510104,0.0595344789326,0.997887730598
1455189615440154644,697192,1455189615440154644,world,0.132612273097,0.35289105773,1.02244627476,0.0261803157628,0.0011930501787,0.0587589927018,0.997928142548
1455189615448469230,697193,1455189615448469230,world,0.1327290833,0.352977186441,1.02244853973,0.026399185881,0.00213954085484,0.0589014627039,0.997912466526
1455189615456538008,697194,1455189615456538008,world,0.132613897324,0.352959513664,1.02244329453,0.0267263203859,0.002350441413,0.0603317581117,0.99781781435
1455189615464900935,697195,1455189615464900935,world,0.13265645504,0.352872014046,1.02242851257,0.0266382675618,0.00235709222034,0.0591840296984,0.997888803482
1455189615473341878,697196,1455189615473341878,world,0.132658496499,0.352955579758,1.02235865593,0.0264566410333,0.00128256028984,0.0588525719941,0.997915267944
1455189615481600217,697197,1455189615481600217,world,0.132571130991,0.352927714586,1.02232992649,0.0262887980789,0.00210442231037,0.0585533455014,0.997935891151
1455189615490119395,697198,1455189615490119395,world,0.132616460323,0.352982610464,1.02245151997,0.026806332171,0.0018960920861,0.0609969012439,0.997776150703
1455189615498366464,697199,1455189615498366464,world,0.132496029139,0.352969825268,1.02232897282,0.0263454746455,0.00079872563947,0.0589661151171,0.997912049294
1455189615506722563,697200,1455189615506722563,world,0.132524967194,0.352933138609,1.0223711729,0.0266886744648,0.00094164715847,0.0592674612999,0.997884869576
1455189615515027890,697201,1455189615515027890,world,0.132555827498,0.352910906076,1.02242934704,0.0258878972381,0.0015846658498,0.0591722838581,0.997910857201
1455189615523399178,697202,1455189615523399178,world,0.132629498839,0.352893829346,1.02246963978,0.0266999881715,0.00198208051734,0.0605734139681,0.997804641724
1455189615531606725,697203,1455189615531606725,world,0.132476717234,0.352902114391,1.02238941193,0.0276049599051,0.000246485054959,0.0591875612736,0.997865140438
1455189615540161716,697204,1455189615540161716,world,0.132616758347,0.352904379368,1.02243518829,0.0283000934869,0.000118310206744,0.0603246130049,0.99777764082
1455189615548336002,697205,1455189615548336002,world,0.13259974122,0.352953374386,1.02240002155,0.0279064346105,0.00078290537931,0.060184981674,0.997796833515
1455189615557048657,697206,1455189615557048657,world,0.132505044341,0.352888286114,1.02241051197,0.027179626748,0.00251356279477,0.0593261197209,0.997865498066
1455189615565262530,697207,1455189615565262530,world,0.13250130415,0.35283562541,1.02230191231,0.0254878178239,0.00241399765946,0.0595030710101,0.997899830341
1455189615573304816,697208,1455189615573304816,world,0.132565155625,0.352852374315,1.02227640152,0.0253788232803,0.00205641263165,0.0587476789951,0.997948110104
1455189615581619732,697209,1455189615581619732,world,0.132492974401,0.352904766798,1.02227318287,0.0256848409772,0.00272417906672,0.0589674785733,0.997925758362
1455189615590154435,697210,1455189615590154435,world,0.132556766272,0.352937877178,1.02227079868,0.0264180675149,0.00231306743808,0.0599609278142,0.997848451138
1455189615598414661,697211,1455189615598414661,world,0.132591485977,0.352853924036,1.02222967148,0.0262192506343,0.00198066001758,0.0573560968041,0.99800747633
1455189615606623288,697212,1455189615606623288,world,0.13259960711,0.352889448404,1.02218925953,0.0267120152712,0.000429034582339,0.0572680979967,0.998001337051
1455189615614844433,697213,1455189615614844433,world,0.132581263781,0.352870106697,1.02213597298,0.0255116820335,0.00199395348318,0.0574072189629,0.998022913933
1455189615623278753,697214,1455189615623278753,world,0.132608428597,0.352874606848,1.02211606503,0.0253828391433,0.00190365489107,0.0573558993638,0.99802929163
1455189615631736913,697215,1455189615631736913,world,0.132521092892,0.352951586246,1.02215707302,0.0280335247517,0.00277252378874,0.0581034645438,0.997913062572
1455189615640175422,697216,1455189615640175422,world,0.132762029767,0.352974176407,1.02220892906,0.0266512185335,0.00184662919492,0.0583130940795,0.997940897942
1455189615648261571,697217,1455189615648261571,world,0.132794961333,0.352989792824,1.02212059498,0.0262897722423,0.00148262770381,0.0585283041,0.997938513756
1455189615656632153,697218,1455189615656632153,world,0.132708951831,0.353006452322,1.02193009853,0.0260491929948,0.000903658743482,0.0577280111611,0.997992098331
1455189615664865071,697219,1455189615664865071,world,0.132796138525,0.353060007095,1.02198469639,0.0262616928667,0.000796362874098,0.0576158650219,0.997993052006
1455189615673389811,697220,1455189615673389811,world,0.132754445076,0.353086918592,1.02206504345,0.0279169343412,0.000798687688075,0.0581838861108,0.997915148735
1455189615681592996,697221,1455189615681592996,world,0.133401215076,0.352222055197,1.02323389053,0.0192641280591,0.00777251133695,0.0635929554701,0.997759699821
1455189615690014462,697222,1455189615690014462,world,0.132790341973,0.353087007999,1.02209115028,0.0272507723421,0.000428506202297,0.0582142062485,0.997932076454
1455189615698472158,697223,1455189615698472158,world,0.132807597518,0.352987468243,1.02220618725,0.026677204296,0.000296950049233,0.0590033866465,0.997901201248
1455189615706572704,697224,1455189615706572704,world,0.132670819759,0.353059232235,1.02212274075,0.0272382944822,-8.78399296198e-05,0.0583645887673,0.997923731804
1455189615714943007,697225,1455189615714943007,world,0.132922321558,0.353144407272,1.0221978426,0.0273001287133,-0.000209864520002,0.0572773329914,0.997984945774
1455189615723314751,697226,1455189615723314751,world,0.132890924811,0.352973103523,1.0221580267,0.0272716581821,0.000424333527917,0.0580119490623,0.997943282127
1455189615731645069,697227,1455189615731645069,world,0.132643654943,0.35303607583,1.02215433121,0.0260400287807,0.000751220562961,0.0574224442244,0.998010098934
1455189615740068902,697228,1455189615740068902,world,0.132602617145,0.353033810854,1.02216434479,0.0266068596393,0.00010671866039,0.0572183616459,0.998007118702
1455189615748366009,697229,1455189615748366009,world,0.13272626698,0.353071570396,1.0222350359,0.0269708484411,0.000539944390766,0.0574316941202,0.997984945774
1455189615756509964,697230,1455189615756509964,world,0.132774874568,0.353077948093,1.02216053009,0.0270340386778,0.000740141957067,0.0570744872093,0.998003661633
1455189615765092014,697231,1455189615765092014,world,0.132679566741,0.3530575037,1.02221500874,0.0262416694313,-0.000305281399051,0.0576319508255,0.997992932796
1455189615773430573,697232,1455189615773430573,world,0.132634803653,0.35299384594,1.02222383022,0.0268084537238,0.000378310331143,0.0578009970486,0.99796807766
1455189615781411023,697233,1455189615781411023,world,0.132675111294,0.353076189756,1.02217388153,0.025789257139,-0.00014764770458,0.0570219196379,0.998039782047
1455189615790135556,697234,1455189615790135556,world,0.132735058665,0.353124320507,1.02226233482,0.0270758159459,0.000471525097964,0.0573902726173,0.997984468937
1455189615798382733,697235,1455189615798382733,world,0.132709294558,0.353022217751,1.02233791351,0.0268794801086,-0.000513374456204,0.0574964173138,0.997983753681
1455189615806933245,697236,1455189615806933245,world,0.132708072662,0.353105485439,1.02219963074,0.0265410263091,0.000421444856329,0.0572208575904,0.998008608818
1455189615815083673,697237,1455189615815083673,world,0.132709026337,0.353102833033,1.02226245403,0.0272023044527,-0.000449199811555,0.0574522763491,0.997977495193
1455189615823183718,697238,1455189615823183718,world,0.132803842425,0.353045403957,1.02223753929,0.0271582901478,0.00110206031241,0.0579870194197,0.997947335243
1455189615831651503,697239,1455189615831651503,world,0.13301537931,0.353087753057,1.02206647396,0.0281366147101,-0.00132135744207,0.0561130605638,0.998027086258
1455189615840155011,697240,1455189615840155011,world,0.132955491543,0.353085666895,1.022108078,0.0272974651307,-0.00114420405589,0.0574245899916,0.997976005077
1455189615848439379,697241,1455189615848439379,world,0.132999569178,0.353076428175,1.02211987972,0.0275923982263,-0.00197865115479,0.0572352297604,0.997977375984
1455189615856739169,697242,1455189615856739169,world,0.132864773273,0.35310035944,1.02209305763,0.0273245107383,-0.000147191181895,0.057386495173,0.99797809124
1455189615864929523,697243,1455189615864929523,world,0.132997438312,0.353125572205,1.02200472355,0.027026835829,-0.00159840704873,0.0569830909371,0.998007953167
1455189615873465272,697244,1455189615873465272,world,0.133010953665,0.35310330987,1.02202832699,0.0264288093895,-0.00150637736078,0.0572489313781,0.998008906841
1455189615881770092,697245,1455189615881770092,world,0.132987782359,0.353167533875,1.02193963528,0.0280978735536,-0.000360101374099,0.0570548735559,0.997975587845
1455189615890225524,697246,1455189615890225524,world,0.132773220539,0.353097289801,1.02206707001,0.0304663553834,5.76302008994e-05,0.0576893426478,0.997869610786
1455189615898511463,697247,1455189615898511463,world,0.132990986109,0.353092700243,1.02204084396,0.0275657642633,0.000584401655942,0.0568727105856,0.998000741005
1455189615906658419,697248,1455189615906658419,world,0.13302692771,0.352984905243,1.02221214771,0.0257052257657,-0.000308581627905,0.058125782758,0.997978210449
1455189615914867707,697249,1455189615914867707,world,0.132746845484,0.352993398905,1.02232241631,0.0273426342756,0.00137304782402,0.0587482824922,0.997897446156
1455189615923465827,697250,1455189615923465827,world,0.132731661201,0.352953583002,1.02229046822,0.0272030942142,0.00078534334898,0.0589665845037,0.997888922691
1455189615931668707,697251,1455189615931668707,world,0.132724329829,0.352930903435,1.02236938477,0.0264319106936,0.000767049961723,0.0598477013409,0.99785721302
1455189615939852816,697252,1455189615939852816,world,0.13276937604,0.352962851524,1.02230775356,0.0273008570075,0.000588457216509,0.058698002249,0.997902274132
1455189615948248169,697253,1455189615948248169,world,0.132882520556,0.352989375591,1.02226519585,0.026802290231,0.0013149905717,0.0583423413336,0.997936010361
1455189615956650437,697254,1455189615956650437,world,0.132812306285,0.353031516075,1.02226150036,0.0272013545036,0.000357223616447,0.0581755228341,0.997935771942
1455189615964979658,697255,1455189615964979658,world,0.132997184992,0.353046864271,1.02218472958,0.0266392678022,0.0021170056425,0.058190818876,0.99794781208
1455189615973539537,697256,1455189615973539537,world,0.132853016257,0.352993696928,1.02224028111,0.0278275776654,0.000494411331601,0.0583457611501,0.99790841341
1455189615981791385,697257,1455189615981791385,world,0.132858172059,0.352915853262,1.02227544785,0.026931475848,0.00145718327258,0.0587736442685,0.997906923294
1455189615990078200,697258,1455189615990078200,world,0.132729187608,0.353005051613,1.02222931385,0.0278950314969,0.000693593116011,0.0585579685867,0.997893989086
1455189615998258467,697259,1455189615998258467,world,0.132697403431,0.352993428707,1.02224171162,0.0273096915334,0.00123009842355,0.0587584152818,0.997897922993
1455189616006892205,697260,1455189616006892205,world,0.132709488273,0.352998167276,1.02221465111,0.0270367320627,0.000818660017103,0.0588173270226,0.997902214527
1455189616015052678,697261,1455189616015052678,world,0.132675170898,0.35300219059,1.02220821381,0.0272292736918,0.00068199634552,0.0587840117514,0.997899055481
1455189616023504269,697262,1455189616023504269,world,0.132666155696,0.353001177311,1.02221941948,0.0274070631713,0.000776142056566,0.0588351972401,0.997891187668
1455189616031469364,697263,1455189616031469364,world,0.132872864604,0.352964431047,1.02226018906,0.024455467239,-0.0015813135542,0.0574757866561,0.99804610014
1455189616039925860,697264,1455189616039925860,world,0.132715120912,0.35301092267,1.02223455906,0.0270480792969,0.000842975103296,0.0585040152073,0.997920334339
1455189616048196214,697265,1455189616048196214,world,0.132823362947,0.352995544672,1.0222017765,0.0264308415353,0.000733118795324,0.0580416433513,0.997963964939
1455189616056836757,697266,1455189616056836757,world,0.132711529732,0.353015065193,1.02218306065,0.0269964132458,0.00093693099916,0.0585927739739,0.997916460037
1455189616065109240,697267,1455189616065109240,world,0.132694333792,0.35300090909,1.02225399017,0.0278382468969,0.000185953511391,0.0584452077746,0.997902393341
1455189616073561458,697268,1455189616073561458,world,0.132719919086,0.35299217701,1.02218127251,0.0277330596,0.000393445166992,0.0585517212749,0.997899055481
1455189616081815882,697269,1455189616081815882,world,0.132812395692,0.352938473225,1.02218997478,0.0270663443953,3.83569204132e-05,0.0582556687295,0.997934758663
1455189616089975938,697270,1455189616089975938,world,0.132938608527,0.35299539566,1.0223647356,0.0296476595104,0.002126557054,0.0582538619637,0.997859299183
1455189616098236474,697271,1455189616098236474,world,0.132813230157,0.352822333574,1.02225601673,0.0262097641826,0.000976998358965,0.0592320375144,0.997899711132
1455189616106795611,697272,1455189616106795611,world,0.13266196847,0.352832704782,1.02230024338,0.0300272200257,-0.00137734157033,0.0585847236216,0.997829854488
1455189616114920191,697273,1455189616114920191,world,0.132637619972,0.352808654308,1.02226579189,0.0265995208174,0.000257015170064,0.0589205883443,0.997908234596
1455189616123442696,697274,1455189616123442696,world,0.132559493184,0.352817952633,1.02224957943,0.0264286119491,-0.000428134895628,0.0585537329316,0.997934281826
1455189616131651875,697275,1455189616131651875,world,0.132979497313,0.352858513594,1.02227878571,0.02985117957,-0.000612046511378,0.0585467219353,0.997838079929
1455189616139935035,697276,1455189616139935035,world,0.132706746459,0.35285577178,1.02226650715,0.0289476886392,-0.00104032142553,0.0590248629451,0.997836172581
1455189616148230032,697277,1455189616148230032,world,0.132786497474,0.352802962065,1.02220308781,0.0254266131669,0.000731902953703,0.0591196380556,0.997926771641
1455189616156724554,697278,1455189616156724554,world,0.132547900081,0.35287836194,1.02218556404,0.0267846882343,-0.000113707465061,0.058855894953,0.997907102108
1455189616164930152,697279,1455189616164930152,world,0.132568925619,0.352855652571,1.02214193344,0.0265611372888,3.96748946514e-05,0.0586391277611,0.997925937176
1455189616173170120,697280,1455189616173170120,world,0.132649034262,0.352876901627,1.02219092846,0.0264148321003,0.000233102531638,0.0574637502432,0.997998058796
1455189616181739908,697281,1455189616181739908,world,0.132748797536,0.352897852659,1.02213442326,0.0241844709963,0.0011143500451,0.057645149529,0.998043596745
1455189616190158659,697282,1455189616190158659,world,0.132915258408,0.352648288012,1.02212941647,0.0254539903253,0.000731713720597,0.0571292154491,0.998042047024
1455189616198466183,697283,1455189616198466183,world,0.132705926895,0.352837264538,1.02210330963,0.0239709764719,0.000154734589159,0.0578453056514,0.998037755489
1455189616206842481,697284,1455189616206842481,world,0.132923394442,0.353000551462,1.02212035656,0.0245580226183,0.000854950863868,0.0568180084229,0.998082101345
1455189616214912990,697285,1455189616214912990,world,0.132758796215,0.352992266417,1.02220201492,0.0251022726297,0.000929063709918,0.0576857030392,0.998018741608
1455189616223479555,697286,1455189616223479555,world,0.132749781013,0.352987825871,1.02224755287,0.0249966513366,0.000267888768576,0.0581729337573,0.997993528843
1455189616231869071,697287,1455189616231869071,world,0.132773756981,0.352890878916,1.02233958244,0.0255484096706,-0.000205430464121,0.0588789209723,0.997938215733
1455189616240098521,697288,1455189616240098521,world,0.132698848844,0.352981418371,1.02234351635,0.0254964455962,0.000649654364679,0.0581184700131,0.997983932495
1455189616248151597,697289,1455189616248151597,world,0.132804110646,0.352961212397,1.0223634243,0.0267496109009,0.000111937064503,0.0578728839755,0.997965633869
1455189616256845219,697290,1455189616256845219,world,0.132707983255,0.352994203568,1.02233290672,0.0255821533501,0.00096043292433,0.0578898526728,0.997994720936
1455189616264927549,697291,1455189616264927549,world,0.132659971714,0.3529702425,1.02239370346,0.026711365208,-5.26745643583e-05,0.0575891397893,0.997983038425
1455189616273486617,697292,1455189616273486617,world,0.132769212127,0.352862983942,1.02237510681,0.0254341606051,0.00111755670514,0.0586932860315,0.997951447964
1455189616281831198,697293,1455189616281831198,world,0.132537931204,0.352918088436,1.02234053612,0.0256887376308,0.000130080297822,0.0587419569492,0.997942626476
1455189616290190363,697294,1455189616290190363,world,0.132817000151,0.352869421244,1.02236497402,0.0263779684901,0.000886851979885,0.0585632659495,0.997934758663
1455189616298366022,697295,1455189616298366022,world,0.132657214999,0.352927774191,1.02245759964,0.0250977668911,0.000132142798975,0.0594013780355,0.997918605804
1455189616306825116,697296,1455189616306825116,world,0.132656276226,0.35288605094,1.02246713638,0.0249161589891,0.000102721067378,0.0598691888154,0.997895240784
1455189616315070165,697297,1455189616315070165,world,0.132917061448,0.352979898453,1.02251374722,0.0268264170736,0.00183950003702,0.0581779442728,0.997944056988
1455189616323547074,697298,1455189616323547074,world,0.132781505585,0.352990955114,1.02246403694,0.02522569336,0.00116972136311,0.058186609298,0.997986376286
1455189616331970015,697299,1455189616331970015,world,0.132962733507,0.352959245443,1.02252066135,0.0271167028695,0.00151047226973,0.0580756478012,0.997942745686
1455189616340084801,697300,1455189616340084801,world,0.132945984602,0.352934509516,1.02250993252,0.0274228248745,0.000759011658374,0.0588610768318,0.99788916111
1455189616348237984,697301,1455189616348237984,world,0.132922947407,0.352961421013,1.0225507021,0.0263552367687,0.00157017202582,0.0577806048095,0.997980237007
1455189616356956158,697302,1455189616356956158,world,0.132867008448,0.352888703346,1.02234864235,0.0244658812881,-0.00216482253745,0.0577882416546,0.99802672863
1455189616364924357,697303,1455189616364924357,world,0.132697805762,0.352982759476,1.02245116234,0.0264248903841,0.000955520081334,0.0575884096324,0.997990250587
1455189616373486774,697304,1455189616373486774,world,0.13274911046,0.352965325117,1.02240419388,0.0266877934337,0.000892381358426,0.0578376203775,0.99796885252
1455189616381770155,697305,1455189616381770155,world,0.132671892643,0.352971464396,1.0223814249,0.0259673539549,0.00168450758792,0.0577831231058,0.997990012169
1455189616389984291,697306,1455189616389984291,world,0.132863372564,0.352942824364,1.02242672443,0.0270231030881,0.000828410964459,0.0580974519253,0.997944831848
1455189616398418629,697307,1455189616398418629,world,0.13259498775,0.352935224771,1.02233707905,0.0260351523757,0.00110610574484,0.0579726099968,0.997978031635
1455189616406887256,697308,1455189616406887256,world,0.132671147585,0.352903664112,1.02236044407,0.026160640642,0.00075838714838,0.0590842291713,0.997909963131
1455189616415084661,697309,1455189616415084661,world,0.132614985108,0.352955907583,1.02233421803,0.0253733210266,0.00132024358027,0.0577632822096,0.998006999493
1455189616423475848,697310,1455189616423475848,world,0.132593214512,0.352993607521,1.02240121365,0.0262878276408,0.000939537480008,0.0579718835652,0.997971594334
1455189616431742354,697311,1455189616431742354,world,0.132814899087,0.352992624044,1.02241897583,0.0269206017256,0.00046504571219,0.0578241124749,0.997963726521
1455189616440150680,697312,1455189616440150680,world,0.132673963904,0.352965444326,1.02241373062,0.0264320317656,0.000877386075445,0.0576688796282,0.997985422611
1455189616448336564,697313,1455189616448336564,world,0.132634729147,0.352879106998,1.0224571228,0.0259782951325,0.000694058660883,0.0584654249251,0.997951209545
1455189616456605725,697314,1455189616456605725,world,0.132625952363,0.35286423564,1.02242255211,0.0255296956748,0.00116246705875,0.0584596395493,0.997962594032
1455189616465067868,697315,1455189616465067868,world,0.132676526904,0.352863252163,1.02240610123,0.0259829182178,0.000700284494087,0.0584404058754,0.997952520847
1455189616473418188,697316,1455189616473418188,world,0.132641583681,0.352944850922,1.02235889435,0.0261558648199,0.00109054136556,0.0578427612782,0.997982442379
1455189616481725295,697317,1455189616481725295,world,0.132714688778,0.352972626686,1.02234375477,0.0259600356221,0.00180841749534,0.0579042062163,0.997982919216
1455189616490266942,697318,1455189616490266942,world,0.132721722126,0.352979630232,1.02233850956,0.025819176808,0.00125862413552,0.057761978358,0.997995734215
1455189616498350200,697319,1455189616498350200,world,0.13260871172,0.352968424559,1.02230751514,0.0256160404533,0.00117007654626,0.0577712841332,0.998000562191
1455189616506972189,697320,1455189616506972189,world,0.132636323571,0.352980077267,1.02229988575,0.024735217914,0.00135027349461,0.0578442662954,0.998018264771
1455189616515048219,697321,1455189616515048219,world,0.132662460208,0.352876752615,1.0224237442,0.02594169043,0.000883503525984,0.0583499260247,0.99795871973
1455189616523431470,697322,1455189616523431470,world,0.132580444217,0.352961957455,1.02242743969,0.0263550803065,0.000987149192952,0.0584067367017,0.997944414616
1455189616531585296,697323,1455189616531585296,world,0.132663711905,0.352837562561,1.02244210243,0.0259849671274,0.000851922784932,0.0581617765129,0.997968673706
1455189616540127976,697324,1455189616540127976,world,0.132843092084,0.352872550488,1.02241885662,0.0266169495881,0.00111493607983,0.0585031695664,0.997931778431
1455189616548447263,697325,1455189616548447263,world,0.132608726621,0.352946788073,1.02238154411,0.0256092417985,0.00126149272546,0.0577232055366,0.998003304005
1455189616556889144,697326,1455189616556889144,world,0.132788226008,0.352895051241,1.02240431309,0.0263725612313,0.00131209823303,0.0581651255488,0.997957706451
1455189616565199130,697327,1455189616565199130,world,0.132537424564,0.352976739407,1.02238380909,0.0253775790334,0.000868181523401,0.0578184425831,0.998004198074
1455189616573404681,697328,1455189616573404681,world,0.132737502456,0.352929055691,1.02237939835,0.0259956382215,0.000489694357384,0.0582243539393,0.997964978218
1455189616581665558,697329,1455189616581665558,world,0.132606804371,0.352994114161,1.0223698616,0.0254055000842,0.00116971600801,0.0578085742891,0.998003721237
1455189616589976233,697330,1455189616589976233,world,0.132627487183,0.352943360806,1.02241230011,0.0263791512698,0.000838804175146,0.0576912201941,0.997985601425
1455189616598320250,697331,1455189616598320250,world,0.132600456476,0.352950036526,1.02235794067,0.0262776501477,0.000953856098931,0.0582218021154,0.997957348824
1455189616606853661,697332,1455189616606853661,world,0.132840842009,0.352934896946,1.02228450775,0.0268297623843,0.00134122394957,0.0576489418745,0.997975468636
1455189616614937136,697333,1455189616614937136,world,0.132746815681,0.35286283493,1.02230727673,0.0245721079409,0.0017193579115,0.0584579855204,0.997986018658
1455189616623495956,697334,1455189616623495956,world,0.132607147098,0.352943271399,1.02240765095,0.026446569711,0.00056029856205,0.0578177310526,0.997976660728
1455189616631782419,697335,1455189616631782419,world,0.132608547807,0.352971106768,1.02234244347,0.0256664343178,0.000882406660821,0.0577836558223,0.997998774052
1455189616640195406,697336,1455189616640195406,world,0.132559284568,0.352980077267,1.02236115932,0.0252949912101,0.00117200182285,0.0578058250248,0.998006701469
1455189616648300760,697337,1455189616648300760,world,0.132612735033,0.352983355522,1.02237808704,0.0260678324848,0.000443328026449,0.0576619766653,0.997995734215
1455189616656891590,697338,1455189616656891590,world,0.132614225149,0.352920114994,1.02237260342,0.0255828183144,0.000983288045973,0.0586550198495,0.997950017452
1455189616664964532,697339,1455189616664964532,world,0.132760494947,0.352898716927,1.02237081528,0.0250298026949,0.00124227406923,0.0585993155837,0.997967064381
1455189616673526808,697340,1455189616673526808,world,0.13262437284,0.352888733149,1.02243173122,0.0257257707417,0.00104923464824,0.059050783515,0.997922897339
1455189616681787741,697341,1455189616681787741,world,0.132588475943,0.352912604809,1.02238714695,0.0259488429874,0.00124692067038,0.057861328125,0.997986614704
1455189616690132246,697342,1455189616690132246,world,0.132753163576,0.352858364582,1.02239906788,0.0250102002174,0.00133614067454,0.0585486292839,0.997970402241
1455189616698181070,697343,1455189616698181070,world,0.132602035999,0.352953791618,1.02238428593,0.0257822088897,0.00138001970481,0.0580932199955,0.997977256775
1455189616706904523,697344,1455189616706904523,world,0.132692962885,0.352963924408,1.02237761021,0.0260550789535,0.00162333797198,0.0577555596828,0.997989416122
1455189616715069188,697345,1455189616715069188,world,0.132602080703,0.352978736162,1.02234792709,0.0256450530142,0.00112612766679,0.0576539672911,0.99800658226
1455189616723433626,697346,1455189616723433626,world,0.132816076279,0.352960437536,1.02233016491,0.0263476986438,0.000971876783296,0.057664770633,0.997987806797
1455189616731693960,697347,1455189616731693960,world,0.132752493024,0.352919518948,1.02245414257,0.0275050066411,0.00268980790861,0.0582174398005,0.997921347618
1455189616739928933,697348,1455189616739928933,world,0.132812485099,0.352966248989,1.02232861519,0.025953354314,0.000502959126607,0.0575552657247,0.998004853725
1455189616748322669,697349,1455189616748322669,world,0.132601320744,0.352961242199,1.02242565155,0.0263120625168,0.000759459799156,0.0574700832367,0.998000204563
1455189616756651667,697350,1455189616756651667,world,0.132637456059,0.352958023548,1.02252662182,0.0271739475429,0.00144079583697,0.0574796274304,0.997975766659
1455189616765119235,697351,1455189616765119235,world,0.132712602615,0.352993071079,1.02248990536,0.0267439670861,0.00167001516093,0.0571358837187,0.998006820679
1455189616773560368,697352,1455189616773560368,world,0.13265863061,0.352988064289,1.02247035503,0.0262314788997,0.00213529681787,0.0574112832546,0.998003721237
1455189616781818637,697353,1455189616781818637,world,0.132573693991,0.352977275848,1.02245259285,0.0263490825891,0.00101974862628,0.0573245100677,0.998007357121
1455189616790143127,697354,1455189616790143127,world,0.132664337754,0.352948158979,1.02222335339,0.0261180717498,-0.000761846371461,0.0581067204475,0.997968435287
1455189616798556985,697355,1455189616798556985,world,0.132716223598,0.352978110313,1.02246034145,0.0268131177872,0.00220207520761,0.0576070509851,0.997976839542
1455189616806683617,697356,1455189616806683617,world,0.132653385401,0.352979153395,1.02247214317,0.0263596661389,0.00157101277728,0.0574336573482,0.998000085354
1455189616815039176,697357,1455189616815039176,world,0.132697552443,0.352965891361,1.02229714394,0.0277457498014,0.000188945690752,0.0579340755939,0.997934758663
1455189616823677041,697358,1455189616823677041,world,0.132617756724,0.352935224771,1.02231657505,0.0258007161319,-0.000524117262103,0.0581421107054,0.997974693775
1455189616831710654,697359,1455189616831710654,world,0.1326816082,0.352928668261,1.02234375477,0.0262395646423,-0.00095566699747,0.0585201643407,0.997940957546
1455189616840196602,697360,1455189616840196602,world,0.132463768125,0.352921694517,1.02237939835,0.025657357648,0.000202904659091,0.0579976625741,0.997987031937
1455189616848388215,697361,1455189616848388215,world,0.132603645325,0.352965354919,1.02239882946,0.0261074919254,0.000369417743059,0.0581037439406,0.997969150543
1455189616856918553,697362,1455189616856918553,world,0.132581725717,0.352900147438,1.02253031731,0.0258060321212,0.00026049601729,0.0582401901484,0.997969031334
1455189616865134844,697363,1455189616865134844,world,0.132631659508,0.352988094091,1.02244341373,0.0255391504616,0.00110796093941,0.0577426142991,0.998004257679
1455189616873452809,697364,1455189616873452809,world,0.132630601525,0.352948993444,1.02239704132,0.0256294496357,0.000613391515799,0.0582683123648,0.997971773148
1455189616881719572,697365,1455189616881719572,world,0.132503300905,0.352919280529,1.02243876457,0.0257869549096,0.00154456472956,0.0583117939532,0.997964143753
1455189616890159769,697366,1455189616890159769,world,0.132632762194,0.352886706591,1.02241206169,0.0261680707335,0.00110704998951,0.0593798086047,0.997891783714
1455189616898570313,697367,1455189616898570313,world,0.132576450706,0.352871090174,1.02223134041,0.0254518389702,0.00128995848354,0.058928322047,0.99793690443
1455189616906957468,697368,1455189616906957468,world,0.132577627897,0.35292071104,1.0223326683,0.0254172477871,-0.00129857612774,0.0589149929583,0.997938513756
1455189616915065509,697369,1455189616915065509,world,0.132686540484,0.352994859219,1.02243542671,0.0262088496238,0.00148416880984,0.0595801919699,0.997878372669
1455189616923482935,697370,1455189616923482935,world,0.132675990462,0.352912247181,1.02240800858,0.0260302331299,0.000983397825621,0.059632666409,0.997880518436
1455189616931789443,697371,1455189616931789443,world,0.132626786828,0.352964103222,1.02240073681,0.0260990578681,0.000663304759655,0.0585025809705,0.997945904732
1455189616940084712,697372,1455189616940084712,world,0.132607445121,0.352941840887,1.02242147923,0.0261757038534,0.000872669974342,0.058167848736,0.997963249683
1455189616948220864,697373,1455189616948220864,world,0.132574409246,0.352866411209,1.0223736763,0.0248736813664,0.00183954299428,0.059164006263,0.997936666012
1455189616956728940,697374,1455189616956728940,world,0.132471948862,0.352853238583,1.02248096466,0.0258542988449,0.000774757645559,0.0588942654431,0.997929096222
1455189616965110189,697375,1455189616965110189,world,0.132533892989,0.352861076593,1.02243077755,0.0257782116532,0.00137096527033,0.0583922937512,0.997959911823
1455189616973596357,697376,1455189616973596357,world,0.13261950016,0.352887421846,1.02236056328,0.0265724547207,-4.98328627145e-05,0.0586967803538,0.997922182083
1455189616981764004,697377,1455189616981764004,world,0.132678255439,0.352858006954,1.02244997025,0.0260407682508,0.000951444380917,0.0595876760781,0.997882902622
1455189616990247871,697378,1455189616990247871,world,0.132700920105,0.352887094021,1.02243256569,0.0261653121561,0.000493105500937,0.0594763830304,0.99788659811
1455189616998425604,697379,1455189616998425604,world,0.132648214698,0.352858662605,1.0224905014,0.0256359055638,0.00180475972593,0.0597872026265,0.997880339622
1455189617006718726,697380,1455189617006718726,world,0.132620975375,0.352884620428,1.0224186182,0.0260389260948,0.000595909892581,0.0589659102261,0.99792021513
1455189617015199757,697381,1455189617015199757,world,0.132495284081,0.352921903133,1.0225032568,0.0250613838434,0.0010021381313,0.0588418282568,0.997952282429
1455189617023382600,697382,1455189617023382600,world,0.132565543056,0.352910041809,1.02239310741,0.0257288422436,0.00113613135181,0.0586636886001,0.997945606709
1455189617031614290,697383,1455189617031614290,world,0.132638797164,0.352942556143,1.02233147621,0.0272595379502,0.000980340410024,0.059105284512,0.99787902832
1455189617040165301,697384,1455189617040165301,world,0.132644966245,0.352879464626,1.02245807648,0.0257975049317,0.00116346310824,0.0594352632761,0.997898101807
1455189617048437766,697385,1455189617048437766,world,0.132567062974,0.352918505669,1.0224789381,0.0259331483394,0.00151384493802,0.0588496513665,0.997928798199
1455189617056974300,697386,1455189617056974300,world,0.13268867135,0.352847218513,1.02250480652,0.0260863211006,0.00114195316564,0.0593695603311,0.997894585133
1455189617065103643,697387,1455189617065103643,world,0.132582321763,0.352953761816,1.02242493629,0.0260428283364,0.000256435159827,0.0580502636731,0.997973918915
1455189617073236939,697388,1455189617073236939,world,0.132524117827,0.352919280529,1.02242410183,0.0258807204664,0.00046245494741,0.058788061142,0.997934877872
1455189617081604053,697389,1455189617081604053,world,0.13249386847,0.352852374315,1.02245616913,0.0261709801853,0.0006357091479,0.058819193393,0.997925400734
1455189617090301954,697390,1455189617090301954,world,0.132653012872,0.352886646986,1.02240788937,0.0259358026087,0.0003600497148,0.0595311373472,0.997889459133
1455189617098318356,697391,1455189617098318356,world,0.132670238614,0.352929294109,1.02234196663,0.0274355243891,0.000985803664662,0.0590072833002,0.997879981995
1455189617106848376,697392,1455189617106848376,world,0.132669836283,0.352924883366,1.02245402336,0.0263869855553,0.00160414667334,0.0585767440498,0.99793279171
1455189617115027957,697393,1455189617115027957,world,0.132657527924,0.352924734354,1.02242839336,0.0262717548758,0.00147231528535,0.0582133419812,0.997957408428
1455189617123320545,697394,1455189617123320545,world,0.132675439119,0.352863371372,1.02240645885,0.0262177530676,0.000368723645806,0.0589079335332,0.997919082642
1455189617131744288,697395,1455189617131744288,world,0.132510587573,0.35289940238,1.0224865675,0.0262485016137,0.00196082657203,0.0597754940391,0.997864842415
1455189617140094945,697396,1455189617140094945,world,0.132614210248,0.352907896042,1.02243995667,0.0260476879776,3.80837591365e-05,0.0589790903032,0.997919380665
1455189617148423284,697397,1455189617148423284,world,0.132528170943,0.352928936481,1.02244114876,0.0258481223136,0.00144246814307,0.0583921000361,0.997958064079
1455189617156839473,697398,1455189617156839473,world,0.132616221905,0.352912992239,1.02224719524,0.0253161545843,0.00220742030069,0.0594100877643,0.997910141945
1455189617165120184,697399,1455189617165120184,world,0.132504299283,0.352915734053,1.02243554592,0.0257941577584,0.000513112230692,0.0576494969428,0.998003482819
1455189617173577182,697400,1455189617173577182,world,0.132539942861,0.352896749973,1.02247166634,0.0260369833559,0.00134080182761,0.0589780583978,0.997918844223
1455189617181891070,697401,1455189617181891070,world,0.13250027597,0.352890133858,1.02249491215,0.0262126643211,0.00111958105117,0.0590189695358,0.997912108898
1455189617190064005,697402,1455189617190064005,world,0.132565587759,0.352885335684,1.02254951,0.0258042570204,-0.000823458423838,0.0583231970668,0.99796384573
1455189617198297618,697403,1455189617198297618,world,0.1324608922,0.352870970964,1.02243745327,0.0262391958386,0.00156668538693,0.0580164343119,0.997969567776
1455189617206937048,697404,1455189617206937048,world,0.132756844163,0.352890133858,1.02245497704,0.0262364875525,0.00167121109553,0.0588116571307,0.997922897339
1455189617215146262,697405,1455189617215146262,world,0.132683545351,0.352900832891,1.02234911919,0.0270232949406,0.00148976407945,0.0595467910171,0.997858583927
1455189617223323265,697406,1455189617223323265,world,0.132756412029,0.352848321199,1.02245092392,0.0263866465539,0.00105042837095,0.058856908232,0.997917175293
1455189617231854562,697407,1455189617231854562,world,0.132623448968,0.352857679129,1.02231991291,0.0261843483895,-0.00104175612796,0.0595202185214,0.997883081436
1455189617240101796,697408,1455189617240101796,world,0.132499247789,0.352918356657,1.02243196964,0.0259274579585,0.00123447075021,0.0580712817609,0.997974932194
1455189617248443428,697409,1455189617248443428,world,0.132518142462,0.352881520987,1.02246928215,0.0260848794132,0.00168598257005,0.0587615445256,0.997929751873
1455189617256767034,697410,1455189617256767034,world,0.132697358727,0.352893233299,1.02245151997,0.0262679420412,0.000412758032326,0.0589972920716,0.997912466526
1455189617264926605,697411,1455189617264926605,world,0.132437855005,0.352925002575,1.02247393131,0.0257529914379,0.00116457382683,0.0579291470349,0.997987806797
1455189617273305966,697412,1455189617273305966,world,0.132634148002,0.352792471647,1.02258348465,0.0251244269311,0.000659339537378,0.0597963146865,0.997894227505
1455189617281710767,697413,1455189617281710767,world,0.132610484958,0.352900892496,1.02245402336,0.0262813791633,0.000189214668353,0.0587088018656,0.997929096222
1455189617289930660,697414,1455189617289930660,world,0.132634922862,0.352865099907,1.02241790295,0.026091132313,0.000154228066094,0.0593782067299,0.997894525528
1455189617298421650,697415,1455189617298421650,world,0.132645368576,0.352879911661,1.02240240574,0.02606680803,0.000349544076016,0.0593359135091,0.997897684574
1455189617306538359,697416,1455189617306538359,world,0.132719308138,0.352789312601,1.02235233784,0.0270564332604,0.00182164716534,0.0606304071844,0.997791945934
1455189617315039984,697417,1455189617315039984,world,0.132673248649,0.352902233601,1.02234697342,0.0263471864164,-0.00082087831106,0.0593219697475,0.997890889645
1455189617323507701,697418,1455189617323507701,world,0.132688388228,0.352883785963,1.02239584923,0.0261509660631,0.000475607666885,0.0593161284924,0.997896611691
1455189617331672861,697419,1455189617331672861,world,0.132652342319,0.352748394012,1.0224250555,0.0267691835761,0.000876554986462,0.0603560209274,0.997817516327
1455189617340317062,697420,1455189617340317062,world,0.132618233562,0.352903395891,1.02247571945,0.0258611924946,0.00139476463664,0.0585220009089,0.997950136662
1455189617348520046,697421,1455189617348520046,world,0.132551252842,0.352951526642,1.02241110802,0.0251413155347,0.000918645528145,0.058220859617,0.997986674309
1455189617356714557,697422,1455189617356714557,world,0.132616654038,0.352873951197,1.02250921726,0.0258957203478,0.00170731323306,0.0586391799152,0.997941911221
1455189617365236427,697423,1455189617365236427,world,0.132689625025,0.352898240089,1.02240490913,0.0262750331312,-0.000769856851548,0.0593875721097,0.997888863087
1455189617373605848,697424,1455189617373605848,world,0.132664263248,0.352843552828,1.02248442173,0.0262272842228,0.00129825819749,0.0594189278781,0.997887730598
1455189617381814728,697425,1455189617381814728,world,0.132571518421,0.352906733751,1.02248859406,0.0258677229285,0.00166919676121,0.058840110898,0.997930884361
1455189617390237190,697426,1455189617390237190,world,0.132682621479,0.352837979794,1.0224673748,0.025683907792,0.00109968078323,0.0596631839871,0.99788749218
1455189617398364889,697427,1455189617398364889,world,0.132626101375,0.352957904339,1.02238070965,0.0268526375294,0.00112936762162,0.0590874031186,0.997891008854
1455189617406538605,697428,1455189617406538605,world,0.132551982999,0.352893024683,1.02242362499,0.0259774383157,0.000748781487346,0.0586219057441,0.997941911221
1455189617415121850,697429,1455189617415121850,world,0.132552564144,0.352933973074,1.02242171764,0.0261578578502,0.00143610301893,0.0587381795049,0.997929692268
1455189617423473069,697430,1455189617423473069,world,0.132578462362,0.352924644947,1.02240133286,0.0260098967701,0.000590858049691,0.0589588880539,0.997921407223
1455189617431734746,697431,1455189617431734746,world,0.13266775012,0.352891236544,1.02240359783,0.0260108187795,0.00073207897367,0.0595570802689,0.997885704041
1455189617440217938,697432,1455189617440217938,world,0.132608145475,0.352952718735,1.02239668369,0.0260530076921,0.00155844492838,0.0576985292137,0.997992873192
1455189617448497078,697433,1455189617448497078,world,0.132595866919,0.352884978056,1.0224442482,0.0256086569279,0.000835446466226,0.0591064915061,0.997922897339
1455189617456724641,697434,1455189617456724641,world,0.132549121976,0.352903604507,1.02247452736,0.0259317886084,0.0013156948844,0.0575406961143,0.998005509377
1455189617465047369,697435,1455189617465047369,world,0.132583320141,0.352779984474,1.02260828018,0.0240341387689,0.00274084950797,0.0574269816279,0.998056590557
1455189617473650437,697436,1455189617473650437,world,0.132553949952,0.352846890688,1.02258300781,0.0241063572466,0.000905999040697,0.0597743354738,0.997920453548
1455189617481756712,697437,1455189617481756712,world,0.132696405053,0.352911949158,1.02243471146,0.0257250312716,0.000710409833118,0.0588103309274,0.997937500477
1455189617490204644,697438,1455189617490204644,world,0.132642522454,0.352880984545,1.02248108387,0.0259987991303,0.00153085030615,0.0601051039994,0.997852265835
1455189617498585014,697439,1455189617498585014,world,0.132779270411,0.35288605094,1.02245187759,0.0260330643505,0.000796376436483,0.0586582012475,0.997938334942
1455189617506752410,697440,1455189617506752410,world,0.132629498839,0.352877378464,1.0224301815,0.025695476681,0.00109630159568,0.0590694136918,0.997922599316
1455189617515399258,697441,1455189617515399258,world,0.132607877254,0.352908074856,1.02246654034,0.0262953974307,0.00120720989071,0.0587317310274,0.997926712036
1455189617523543414,697442,1455189617523543414,world,0.132688999176,0.352891653776,1.02244794369,0.026368374005,0.000425354926847,0.058917671442,0.997914433479
1455189617531764397,697443,1455189617531764397,world,0.132626160979,0.352916628122,1.02235007286,0.0274866446853,0.000629082904197,0.0597173124552,0.997836589813
1455189617540223464,697444,1455189617540223464,world,0.132653534412,0.352891802788,1.02233982086,0.0276554226875,0.000304593442706,0.0595482215285,0.997842311859
1455189617548552716,697445,1455189617548552716,world,0.132514193654,0.352886408567,1.02245366573,0.0260575991124,0.00276173185557,0.0590009279549,0.997913956642
1455189617556809220,697446,1455189617556809220,world,0.132630109787,0.352936893702,1.02235615253,0.0261474438012,-0.0006546920049,0.0590413808823,0.997912883759
1455189617565100475,697447,1455189617565100475,world,0.132666125894,0.35290017724,1.02242577076,0.0257855113596,0.00146812712774,0.0593834109604,0.997901082039
1455189617573494054,697448,1455189617573494054,world,0.132666319609,0.352848082781,1.02245020866,0.0263611283153,0.000558743195143,0.0590871088207,0.997904539108
1455189617581794674,697449,1455189617581794674,world,0.132537141442,0.352932602167,1.02252185345,0.0256182849407,0.00163123290986,0.0593880042434,0.997904896736
1455189617590208465,697450,1455189617590208465,world,0.132534325123,0.352998733521,1.02257049084,0.026742592454,0.00103863736149,0.0592824816704,0.997882425785
1455189617598524527,697451,1455189617598524527,world,0.132524743676,0.352893769741,1.02239203453,0.0285633541644,0.000980075797997,0.0587818473577,0.997861742973
1455189617606678567,697452,1455189617606678567,world,0.132548391819,0.35291454196,1.02247464657,0.0260310638696,0.000173343287315,0.0596630685031,0.99787914753
1455189617614923356,697453,1455189617614923356,world,0.132565036416,0.352841436863,1.02251720428,0.024627070874,0.00023791588319,0.0588370598853,0.997963786125
1455189617623557726,697454,1455189617623557726,world,0.132585242391,0.352912396193,1.02256000042,0.0257942620665,0.00141133752186,0.0585759989917,0.99794870615
1455189617631704131,697455,1455189617631704131,world,0.132581487298,0.352870672941,1.02249574661,0.0259577557445,0.00262824865058,0.0591842904687,0.997906148434
1455189617640200850,697456,1455189617640200850,world,0.132608011365,0.3529086411,1.02238976955,0.0256873946637,0.00119592715055,0.059028301388,0.997925102711
1455189617648344342,697457,1455189617648344342,world,0.132584750652,0.352877825499,1.02241635323,0.0260407850146,0.00123811524827,0.0589380674064,0.997921168804
1455189617656838225,697458,1455189617656838225,world,0.132617846131,0.352918714285,1.02232575417,0.0252381116152,0.00264971214347,0.0587754100561,0.997948646545
1455189617664959328,697459,1455189617664959328,world,0.132515862584,0.352928221226,1.02241051197,0.0286591704935,-0.000498581968714,0.0592908449471,0.997829139233
1455189617673521964,697460,1455189617673521964,world,0.132578030229,0.352864414454,1.02241623402,0.0262490492314,-0.000319914397551,0.0591060332954,0.997906506062
1455189617681744550,697461,1455189617681744550,world,0.132679596543,0.352922767401,1.02251970768,0.0265007391572,0.00187212449964,0.0604558773339,0.997817337513
1455189617690228062,697462,1455189617690228062,world,0.132578790188,0.352960258722,1.02248227596,0.0260405354202,0.00183901016135,0.0576770491898,0.997993946075
1455189617698485738,697463,1455189617698485738,world,0.132734000683,0.352884918451,1.02245700359,0.0259658247232,0.000873015727848,0.0591036640108,0.997913777828
1455189617706888025,697464,1455189617706888025,world,0.132483586669,0.352926462889,1.02240073681,0.0256016198546,0.0008733610739,0.0582157410681,0.997975289822
1455189617715071413,697465,1455189617715071413,world,0.132588878274,0.352931916714,1.02241504192,0.0264548100531,0.000735229637939,0.0587691888213,0.997920751572
1455189617723551983,697466,1455189617723551983,world,0.132631614804,0.352913886309,1.02233219147,0.0267868991941,0.00168775115162,0.0597103387117,0.997854948044
1455189617731837433,697467,1455189617731837433,world,0.132603555918,0.352881044149,1.02250301838,0.0264013186097,0.00185031606816,0.0592330172658,0.99789339304
1455189617740239818,697468,1455189617740239818,world,0.132565051317,0.352825522423,1.02249157429,0.0257695578039,0.00128621549811,0.0594229400158,0.997899472713
1455189617748507123,697469,1455189617748507123,world,0.132559493184,0.352879166603,1.02248454094,0.0260076336563,0.0016233912902,0.0588929988444,0.997924149036
1455189617756840374,697470,1455189617756840374,world,0.132642045617,0.352850735188,1.02245032787,0.0262594409287,0.00101993104909,0.0592376478016,0.997898042202
1455189617764993746,697471,1455189617764993746,world,0.132562413812,0.352920860052,1.02249121666,0.0264964010566,0.00154875777662,0.0588357672095,0.997914791107
1455189617773551015,697472,1455189617773551015,world,0.132552206516,0.352920293808,1.02249455452,0.0262370370328,0.00251608365215,0.0582611858845,0.997953414917
1455189617781713684,697473,1455189617781713684,world,0.13266800344,0.352898448706,1.02246022224,0.025823764503,0.000451284111477,0.0589758269489,0.997925341129
1455189617790206081,697474,1455189617790206081,world,0.132573053241,0.352902829647,1.0224531889,0.0260299146175,0.000383550504921,0.0588916540146,0.997924864292
1455189617798431067,697475,1455189617798431067,world,0.132475122809,0.352864265442,1.02241897583,0.025687282905,0.00128222070634,0.0583639889956,0.997964084148
1455189617806890823,697476,1455189617806890823,world,0.13252492249,0.352986752987,1.02249515057,0.0261170137674,0.00150913198013,0.0586515851319,0.997935712337
1455189617814939024,697477,1455189617814939024,world,0.13270612061,0.352728575468,1.02236557007,0.0237805973738,0.00200742878951,0.0604144334793,0.997888028622
1455189617823484286,697478,1455189617823484286,world,0.13250182569,0.352904975414,1.02246999741,0.0262205377221,0.00161650869995,0.0583651214838,0.99794960022
1455189617831724510,697479,1455189617831724510,world,0.132594704628,0.352862656116,1.02240300179,0.0272730626166,0.00328571815044,0.0592298395932,0.997866392136
1455189617840217845,697480,1455189617840217845,world,0.132635220885,0.352814555168,1.02248668671,0.0260470248759,0.00162954989355,0.058907084167,0.997922360897
1455189617848562580,697481,1455189617848562580,world,0.132765203714,0.352866500616,1.02243435383,0.0259001832455,0.000583362358157,0.0587665587664,0.997935533524
1455189617856929048,697482,1455189617856929048,world,0.13265620172,0.352904111147,1.02236557007,0.0277412142605,0.000615377910435,0.0594450496137,0.997845828533
1455189617865148024,697483,1455189617865148024,world,0.132523745298,0.352875828743,1.0224506855,0.0259409062564,0.00150718737859,0.0589766204357,0.9979211092
1455189617873656852,697484,1455189617873656852,world,0.132513970137,0.352945178747,1.02248775959,0.0260334573686,0.00123442686163,0.0583938471973,0.997953414917
1455189617881858241,697485,1455189617881858241,world,0.132553428411,0.352939844131,1.02243375778,0.0268552545458,7.98066139396e-06,0.0590795874596,0.997891962528
1455189617890062108,697486,1455189617890062108,world,0.132651388645,0.352903068066,1.02246761322,0.0259930975735,0.00156874465756,0.0587410777807,0.997933626175
1455189617898427948,697487,1455189617898427948,world,0.132640406489,0.352917283773,1.02239906788,0.0262521449476,0.000122176876175,0.0589138194919,0.997917830944
1455189617906937652,697488,1455189617906937652,world,0.132697105408,0.352871060371,1.02249526978,0.0260995011777,0.00125507218763,0.0587247014046,0.997932195663
1455189617915108794,697489,1455189617915108794,world,0.132515266538,0.35292968154,1.02235150337,0.02556248568,0.00197897688486,0.0581552647054,0.997978270054
1455189617923522160,697490,1455189617923522160,world,0.132601067424,0.352861344814,1.02246546745,0.0257697943598,0.00137031369377,0.0597413145006,0.997880339622
1455189617931712015,697491,1455189617931712015,world,0.132581576705,0.352887153625,1.02255821228,0.0254349019378,-6.02582840656e-05,0.0586670599878,0.997953534126
1455189617940277864,697492,1455189617940277864,world,0.132677197456,0.353025853634,1.02240014076,0.0262010730803,0.0024995605927,0.0577710270882,0.997982859612
1455189617948673349,697493,1455189617948673349,world,0.132613539696,0.3529330194,1.02242934704,0.0256634633988,0.00175637321081,0.0594848357141,0.997897803783
1455189617956720608,697494,1455189617956720608,world,0.132646486163,0.352889627218,1.02234780788,0.0274011511356,0.00100226560608,0.0597234591842,0.997838318348
1455189617965032570,697495,1455189617965032570,world,0.132638812065,0.352921247482,1.02249252796,0.0248822718859,0.000948994536884,0.0588402114809,0.997956871986
1455189617973411893,697496,1455189617973411893,world,0.132525697351,0.352919280529,1.02236187458,0.0259184166789,-0.000544616719708,0.0589953884482,0.997921645641
1455189617981825066,697497,1455189617981825066,world,0.13258202374,0.352916151285,1.02248573303,0.0260210968554,0.00122959155124,0.0585753247142,0.997943103313
1455189617990244382,697498,1455189617990244382,world,0.132592007518,0.352861940861,1.0224148035,0.0260268691927,-0.00032632710645,0.0592129565775,0.997906029224
1455189617998823129,697499,1455189617998823129,world,0.132544457912,0.352937042713,1.02246057987,0.0259280782193,0.0011320131598,0.058470454067,0.997951745987
1455189618006752480,697500,1455189618006752480,world,0.132575646043,0.352930903435,1.02248680592,0.02569071576,0.00136485078838,0.0576345175505,0.998006224632
1455189618015048437,697501,1455189618015048437,world,0.132591918111,0.352796584368,1.02234888077,0.0260741841048,0.000158026916324,0.0592583157122,0.997902154922
1455189618023316331,697502,1455189618023316331,world,0.132624030113,0.352948158979,1.02243769169,0.0264892429113,0.001416230225,0.0579936951399,0.997964441776
1455189618031823858,697503,1455189618031823858,world,0.132552862167,0.352971047163,1.02249956131,0.0259475242347,0.00163851876277,0.058572974056,0.997944533825
1455189618040295784,697504,1455189618040295784,world,0.132541775703,0.35289528966,1.02245187759,0.0251881312579,0.00189878186211,0.0581632368267,0.997987508774
1455189618048488875,697505,1455189618048488875,world,0.132683366537,0.352849990129,1.02232539654,0.0274786408991,0.000305427412968,0.0597560927272,0.997834742069
1455189618056855669,697506,1455189618056855669,world,0.132567465305,0.352885097265,1.02248907089,0.0258311480284,0.00314275128767,0.0594592392445,0.997891545296
1455189618065031058,697507,1455189618065031058,world,0.13266441226,0.352874457836,1.02237987518,0.027558228001,0.00172470987309,0.0595702379942,0.99784219265
1455189618073509073,697508,1455189618073509073,world,0.132627189159,0.352842837572,1.02242016792,0.0262798778713,0.000515382038429,0.0596604272723,0.997872650623
1455189618081699546,697509,1455189618081699546,world,0.132510334253,0.352918177843,1.02243077755,0.026008464396,0.000869530020282,0.0584913603961,0.99794870615
1455189618090274173,697510,1455189618090274173,world,0.132624924183,0.352842152119,1.02250659466,0.0262858364731,0.0015341071412,0.0599408186972,0.997854650021
1455189618098444409,697511,1455189618098444409,world,0.132663041353,0.352841556072,1.02243173122,0.026074199006,0.000198037188966,0.0595820769668,0.997882902622
1455189618106834149,697512,1455189618106834149,world,0.132517799735,0.352910071611,1.02249157429,0.0259021241218,0.0013944064267,0.058295249939,0.997962415218
1455189618115258943,697513,1455189618115258943,world,0.13255122304,0.352999329567,1.02250027657,0.0270098466426,0.00043908067164,0.0598519146442,0.997841715813
1455189618123360583,697514,1455189618123360583,world,0.132642745972,0.352853655815,1.02246451378,0.0261313151568,0.000681444187649,0.0591540150344,0.997906625271
1455189618131637375,697515,1455189618131637375,world,0.132643029094,0.352894484997,1.02233684063,0.0273631308228,0.00111060158815,0.0599902048707,0.997823297977
1455189618140174608,697516,1455189618140174608,world,0.132666617632,0.352847665548,1.0224378109,0.0261580366641,0.00107868306804,0.059675052762,0.997874498367
1455189618148418317,697517,1455189618148418317,world,0.132503524423,0.352905780077,1.02243936062,0.0249360650778,0.00245301169343,0.0593403242528,0.997923374176
1455189618156890530,697518,1455189618156890530,world,0.132601067424,0.352934062481,1.02239441872,0.0265526790172,0.00212370231748,0.0588133186102,0.997913599014
1455189618165184508,697519,1455189618165184508,world,0.132630005479,0.352913707495,1.02241742611,0.0261553823948,0.00108741398435,0.0588530786335,0.997923374176
1455189618173426422,697520,1455189618173426422,world,0.132638916373,0.352874904871,1.0224211216,0.0258904695511,-3.12628544634e-05,0.0592856258154,0.997905313969
1455189618181770678,697521,1455189618181770678,world,0.132663413882,0.352753400803,1.02253961563,0.026171348989,0.00190569483675,0.0598187595606,0.997864305973
1455189618190047866,697522,1455189618190047866,world,0.132582783699,0.352896422148,1.02252221107,0.0262969098985,0.00123539811466,0.0585888177156,0.997935056686
1455189618198338653,697523,1455189618198338653,world,0.132634416223,0.352811634541,1.02234375477,0.02577306889,0.000334705313435,0.0600935816765,0.997859954834
1455189618206945848,697524,1455189618206945848,world,0.132595792413,0.352850615978,1.02250254154,0.025921812281,0.001599191688,0.0593406446278,0.997899889946
